{ "type": "FeatureCollection", 
  "features": [
{"geometry": {"type": "Point", "coordinates": [121.5161459, 25.0647693]}, "type": "Feature", "properties": {"fax": "2572-0045", "tel": "2592-0055", "addr": "\u81fa\u5317\u5e02\u5927\u9f8d\u885751\u865f", "gglon": "121.5161459", "zipcode": "10361", "name": "\u5927\u540c\u904b\u52d5\u4e2d\u5fc3", "url": "http://www.taipeidt.com.tw", "gglat": "25.0647693", "ggstat": "OK"}, "id": 1}
{"geometry": {"type": "Point", "coordinates": [121.521411, 25.089668]}, "type": "Feature", "properties": {"fax": "2880-5966", "tel": "2880-6066", "addr": "\u81fa\u5317\u5e02\u58eb\u6797\u5340\u58eb\u5546\u8def\u4e00\u865f", "gglon": "121.521411", "zipcode": "11168", "name": "\u58eb\u6797\u904b\u52d5\u4e2d\u5fc3", "url": "http://www.slsc-taipei.org/big5/", "gglat": "25.089668", "ggstat": "OK"}, "id": 2}
{"geometry": {"type": "Point", "coordinates": [121.509768, 25.1164729]}, "type": "Feature", "properties": {"fax": "2820-6070", "tel": "2820-2880", "addr": "\u81fa\u5317\u5e02\u5317\u6295\u5340\u77f3\u724c\u8def1\u6bb539\u5df7100\u865f", "gglon": "121.509768", "zipcode": "11271", "name": "\u5317\u6295\u904b\u52d5\u4e2d\u5fc3", "url": "http://btsc.org", "gglat": "25.1164729", "ggstat": "OK"}, "id": 3}
{"geometry": {"type": "Point", "coordinates": [121.5213932, 25.0548895]}, "type": "Feature", "properties": {"fax": "2560-4894", "tel": "2581-1060", "addr": "\u81fa\u5317\u5e02\u4e2d\u5c71\u5340\u4e2d\u5c71\u5317\u8def2\u6bb544\u5df72\u865f", "gglon": "121.5213932", "zipcode": "10412", "name": "\u4e2d\u5c71\u904b\u52d5\u4e2d\u5fc3", "url": "http://cssc.cyc.org.tw", "gglat": "25.0548895", "ggstat": "OK"}, "id": 4}
{"geometry": {"type": "Point", "coordinates": [121.5818399, 25.048938]}, "type": "Feature", "properties": {"fax": "2653-8311", "tel": "2653-2279", "addr": "\u81fa\u5317\u5e02\u5357\u6e2f\u5340\u7389\u6210\u885769\u865f", "gglon": "121.5818399", "zipcode": "11577", "name": "\u5357\u6e2f\u904b\u52d5\u4e2d\u5fc3", "url": "http://ngsc.cyc.org.tw", "gglat": "25.048938", "ggstat": "OK"}, "id": 5}
{"geometry": {"type": "Point", "coordinates": [121.5666793, 25.0318684]}, "type": "Feature", "properties": {"fax": "87861911", "tel": "8786-1911", "addr": "\u81fa\u5317\u5e02\u4fe1\u7fa9\u5340\u677e\u52e4\u8857100\u865f", "gglon": "121.5666793", "zipcode": "11047", "name": "\u4fe1\u7fa9\u904b\u52d5\u4e2d\u5fc3", "url": "http://xysc.cyc.org.tw", "gglat": "25.0318684", "ggstat": "OK"}, "id": 6}
{"geometry": {"type": "Point", "coordinates": [121.559673, 24.9970166]}, "type": "Feature", "properties": {"fax": "22308676", "tel": "2230-8268", "addr": "\u81fa\u5317\u5e02\u6587\u5c71\u5340\u8208\u9686\u8def3\u6bb5222\u865f", "gglon": "121.559673", "zipcode": "11698", "name": "\u6587\u5c71\u904b\u52d5\u4e2d\u5fc3", "url": "http://wssc.cyc.org.tw", "gglat": "24.9970166", "ggstat": "OK"}, "id": 7}
{"geometry": {"type": "Point", "coordinates": [121.518896, 25.038569]}, "type": "Feature", "properties": {"fax": "3322-5019", "tel": "3322-5016", "addr": "\u81fa\u5317\u5e02\u4e2d\u6b63\u5340\u4fe1\u7fa9\u8def1\u6bb51\u865f", "gglon": "121.518896", "zipcode": "10048", "name": "\u4e2d\u6b63\u904b\u52d5\u4e2d\u5fc3", "url": "http://www.jjsports.com.tw", "gglat": "25.038569", "ggstat": "OK"}, "id": 8}
{"geometry": {"type": "Point", "coordinates": [121.5751539, 25.0782334]}, "type": "Feature", "properties": {"fax": "2657-9782", "tel": "2627-7776", "addr": "\u81fa\u5317\u5e02\u5167\u6e56\u5340\u6d32\u5b50\u885712\u865f", "gglon": "121.5751539", "zipcode": "11493", "name": "\u5167\u6e56\u904b\u52d5\u4e2d\u5fc3", "url": "http://www.nhsports.com.tw/", "gglat": "25.0782334", "ggstat": "OK"}, "id": 9}
{"geometry": {"type": "Point", "coordinates": [121.5067531, 25.0474081]}, "type": "Feature", "properties": {"fax": "2381-8667", "tel": "2381-8878", "addr": "\u81fa\u5317\u5e02\u842c\u83ef\u5340\u897f\u5be7\u5357\u8def6\u4e4b1\u865f", "gglon": "121.5067531", "zipcode": "10841", "name": "\u842c\u83ef\u904b\u52d5\u4e2d\u5fc3", "url": "http://whsc.cyc.org.tw", "gglat": "25.0474081", "ggstat": "OK"}, "id": 10}
{"geometry": {"type": "Point", "coordinates": [121.545636, 25.0207769]}, "type": "Feature", "properties": {"fax": "2377-0331", "tel": "2377-0300", "addr": "\u81fa\u5317\u5e02\u8f9b\u4ea5\u8def3\u6bb555\u865f", "gglon": "121.545636", "zipcode": "10671", "name": "\u5927\u5b89\u904b\u52d5\u4e2d\u5fc3", "url": "http://dasc.cyc.org.tw", "gglat": "25.0207769", "ggstat": "OK"}, "id": 11}
{"geometry": {"type": "Point", "coordinates": [121.550231, 25.048607]}, "type": "Feature", "properties": {"fax": "25798203", "tel": "6617-6789", "addr": "\u81fa\u5317\u5e02\u6566\u5316\u5317\u8def1\u865f", "gglon": "121.550231", "zipcode": "10549", "name": "\u677e\u5c71\u904b\u52d5\u4e2d\u5fc3", "url": "http://www.sssc.com.tw", "gglat": "25.048607", "ggstat": "OK"}, "id": 12}
    ]
}