{ "type": "FeatureCollection", 
  "features": [
{"geometry": {"type": "Point", "coordinates": [121.61597869466438, 24.932169798655107]}, "type": "Feature", "properties": {"TOWN": "\u77f3\u7887\u9109", "NAME": "\u576a\u6797", "OBJECTID": 1, "DEP": "\u6c23\u8c61\u5c40", "STID": 1.0, "COUNTY": "\u81fa\u5317\u7e23", "STATIONID": "01A17", "V": 1.0, "Y": 2758601.79585076, "X": 311382.84206021}}
{"geometry": {"type": "Point", "coordinates": [121.42458871611682, 24.8844023963571]}, "type": "Feature", "properties": {"TOWN": "\u4e09\u5cfd\u93ae", "NAME": "\u5927\u8c79", "OBJECTID": 2, "DEP": "\u6c23\u8c61\u5c40", "STID": 2.0, "COUNTY": "\u81fa\u5317\u7e23", "STATIONID": "01A21", "V": 2.0, "Y": 2753236.96474176, "X": 292069.34597822}, "id": 1}
{"geometry": {"type": "Point", "coordinates": [121.51551407092619, 25.01958150910501]}, "type": "Feature", "properties": {"TOWN": "\u6c38\u548c\u5e02", "NAME": "\u4e2d\u6b63\u6a4b", "OBJECTID": 3, "DEP": "\u6c23\u8c61\u5c40", "STID": 3.0, "COUNTY": "\u81fa\u5317\u7e23", "STATIONID": "01A41", "V": 3.0, "Y": 2768241.65224374, "X": 301199.27878672}, "id": 2}
{"geometry": {"type": "Point", "coordinates": [121.5384953407644, 25.16939703772527]}, "type": "Feature", "properties": {"TOWN": "\u5317\u6295\u5340", "NAME": "\u7af9\u5b50\u6e56", "OBJECTID": 4, "DEP": "\u6c23\u8c61\u5c40", "STID": 4.0, "COUNTY": "\u81fa\u5317\u5e02", "STATIONID": "01A42", "V": 4.0, "Y": 2784845.1900512, "X": 303452.55174882}, "id": 3}
{"geometry": {"type": "Point", "coordinates": [121.48985876230203, 24.777176270843917]}, "type": "Feature", "properties": {"TOWN": "\u70cf\u4f86\u9109", "NAME": "\u798f\u5c71", "OBJECTID": 5, "DEP": "\u6c23\u8c61\u5c40", "STID": 5.0, "COUNTY": "\u81fa\u5317\u7e23", "STATIONID": "01A43", "V": 5.0, "Y": 2741382.54066672, "X": 298706.6313604}, "id": 4}
{"geometry": {"type": "Point", "coordinates": [121.57458602726945, 24.86828301535265]}, "type": "Feature", "properties": {"TOWN": "\u70cf\u4f86\u9109", "NAME": "\u5927\u6876\u5c71", "OBJECTID": 6, "DEP": "\u6c23\u8c61\u5c40", "STID": 6.0, "COUNTY": "\u81fa\u5317\u7e23", "STATIONID": "01A44", "V": 6.0, "Y": 2751507.13318815, "X": 307232.11399234}, "id": 5}
{"geometry": {"type": "Point", "coordinates": [121.69487647590611, 25.079110327623102]}, "type": "Feature", "properties": {"TOWN": "\u4e03\u5835\u5340", "NAME": "\u4e94\u5835", "OBJECTID": 7, "DEP": "\u6c23\u8c61\u5c40", "STID": 7.0, "COUNTY": "\u57fa\u9686\u5e02", "STATIONID": "01B03", "V": 7.0, "Y": 2774916.40245795, "X": 319268.03438755}, "id": 6}
{"geometry": {"type": "Point", "coordinates": [121.24430843955716, 24.817467648377008]}, "type": "Feature", "properties": {"TOWN": "\u9f8d\u6f6d\u9109", "NAME": "\u77f3\u9580", "OBJECTID": 8, "DEP": "\u6c23\u8c61\u5c40", "STID": 8.0, "COUNTY": "\u6843\u5712\u7e23", "STATIONID": "01C40", "V": 8.0, "Y": 2745778.51135882, "X": 273867.94909727}, "id": 7}
{"geometry": {"type": "Point", "coordinates": [121.39152022355832, 24.681625781333416]}, "type": "Feature", "properties": {"TOWN": "\u5fa9\u8208\u9109", "NAME": "\u5df4\u9675", "OBJECTID": 9, "DEP": "\u6c23\u8c61\u5c40", "STID": 9.0, "COUNTY": "\u6843\u5712\u7e23", "STATIONID": "21C07", "V": 9.0, "Y": 2730767.36395284, "X": 288792.57797517}, "id": 8}
{"geometry": {"type": "Point", "coordinates": [121.35818942492067, 24.714961061007525]}, "type": "Feature", "properties": {"TOWN": "\u5fa9\u8208\u9109", "NAME": "\u9ad8\u7fa9", "OBJECTID": 10, "DEP": "\u6c23\u8c61\u5c40", "STID": 10.0, "COUNTY": "\u6843\u5712\u7e23", "STATIONID": "21C08", "V": 10.0, "Y": 2734450.31883627, "X": 285409.85733202}, "id": 9}
{"geometry": {"type": "Point", "coordinates": [121.4081834373661, 24.631624749034284]}, "type": "Feature", "properties": {"TOWN": "\u5fa9\u8208\u9109", "NAME": "\u560e\u62c9\u8cc0", "OBJECTID": 11, "DEP": "\u6c23\u8c61\u5c40", "STID": 11.0, "COUNTY": "\u6843\u5712\u7e23", "STATIONID": "21C09", "V": 11.0, "Y": 2725234.23345168, "X": 290495.35980075}, "id": 10}
{"geometry": {"type": "Point", "coordinates": [121.35819488019892, 24.79829467783112]}, "type": "Feature", "properties": {"TOWN": "\u5fa9\u8208\u9109", "NAME": "\u971e\u96f2", "OBJECTID": 12, "DEP": "\u6c23\u8c61\u5c40", "STID": 12.0, "COUNTY": "\u6843\u5712\u7e23", "STATIONID": "21C14", "V": 12.0, "Y": 2743680.31564486, "X": 285386.24427599}, "id": 11}
{"geometry": {"type": "Point", "coordinates": [121.3081866699277, 24.66496360862074]}, "type": "Feature", "properties": {"TOWN": "\u5c16\u77f3\u9109", "NAME": "\u7389\u5cf0", "OBJECTID": 13, "DEP": "\u6c23\u8c61\u5c40", "STID": 13.0, "COUNTY": "\u65b0\u7af9\u7e23", "STATIONID": "21D15", "V": 13.0, "Y": 2728900.3898711, "X": 280363.38641532}, "id": 12}
{"geometry": {"type": "Point", "coordinates": [121.22484658942247, 24.54830108410997]}, "type": "Feature", "properties": {"TOWN": "\u5c16\u77f3\u9109", "NAME": "\u767d\u77f3", "OBJECTID": 14, "DEP": "\u6c23\u8c61\u5c40", "STID": 14.0, "COUNTY": "\u65b0\u7af9\u7e23", "STATIONID": "21D16", "V": 14.0, "Y": 2715962.87856305, "X": 271949.42864748}, "id": 13}
{"geometry": {"type": "Point", "coordinates": [121.30818014123695, 24.564963266195065]}, "type": "Feature", "properties": {"TOWN": "\u5c16\u77f3\u9109", "NAME": "\u93ae\u897f\u5821", "OBJECTID": 15, "DEP": "\u6c23\u8c61\u5c40", "STID": 15.0, "COUNTY": "\u65b0\u7af9\u7e23", "STATIONID": "21D17", "V": 15.0, "Y": 2717824.63805278, "X": 280387.54321534}, "id": 14}
{"geometry": {"type": "Point", "coordinates": [121.3581807365996, 24.58162730923317]}, "type": "Feature", "properties": {"TOWN": "\u5c16\u77f3\u9109", "NAME": "\u897f\u4e18\u65af\u5c71", "OBJECTID": 16, "DEP": "\u6c23\u8c61\u5c40", "STID": 16.0, "COUNTY": "\u65b0\u7af9\u7e23", "STATIONID": "21D35", "V": 16.0, "Y": 2719682.53642251, "X": 285447.48254805}, "id": 15}
{"geometry": {"type": "Point", "coordinates": [121.47484938673117, 24.63162109641652]}, "type": "Feature", "properties": {"TOWN": "\u5927\u540c\u9109", "NAME": "\u6c60\u7aef", "OBJECTID": 17, "DEP": "\u6c23\u8c61\u5c40", "STID": 17.0, "COUNTY": "\u5b9c\u862d\u7e23", "STATIONID": "21U11", "V": 17.0, "Y": 2725255.5102517, "X": 297244.67743904}, "id": 16}
{"geometry": {"type": "Point", "coordinates": [121.5384953407644, 25.16939703772527]}, "type": "Feature", "properties": {"TOWN": "\u5317\u6295\u5340", "NAME": "\u7af9\u5b50\u6e56", "OBJECTID": 18, "DEP": "\u6c23\u8c61\u5c40", "STID": 18.0, "COUNTY": "\u81fa\u5317\u5e02", "STATIONID": "46693", "V": 18.0, "Y": 2784845.1900512, "X": 303452.55174882}, "id": 17}
{"geometry": {"type": "Point", "coordinates": [121.42458871611682, 24.8844023963571]}, "type": "Feature", "properties": {"TOWN": "\u4e09\u5cfd\u93ae", "NAME": "\u5927\u8c79", "OBJECTID": 19, "DEP": "\u6c23\u8c61\u5c40", "STID": 19.0, "COUNTY": "\u81fa\u5317\u7e23", "STATIONID": "C0A51", "V": 19.0, "Y": 2753236.96474176, "X": 292069.34597822}, "id": 18}
{"geometry": {"type": "Point", "coordinates": [121.40209492894914, 24.974126160064802]}, "type": "Feature", "properties": {"TOWN": "\u6a39\u6797\u93ae", "NAME": "\u5c71\u4f73", "OBJECTID": 20, "DEP": "\u6c23\u8c61\u5c40", "STID": 20.0, "COUNTY": "\u81fa\u5317\u7e23", "STATIONID": "C0A52", "V": 20.0, "Y": 2763168.09076701, "X": 289767.26290407}, "id": 19}
{"geometry": {"type": "Point", "coordinates": [121.61597869466438, 24.932169798655107]}, "type": "Feature", "properties": {"TOWN": "\u77f3\u7887\u9109", "NAME": "\u576a\u6797", "OBJECTID": 21, "DEP": "\u6c23\u8c61\u5c40", "STID": 21.0, "COUNTY": "\u81fa\u5317\u7e23", "STATIONID": "C0A53", "V": 21.0, "Y": 2758601.79585076, "X": 311382.84206021}, "id": 20}
{"geometry": {"type": "Point", "coordinates": [121.74569682564506, 24.892162563449418]}, "type": "Feature", "properties": {"TOWN": "\u576a\u6797\u9109", "NAME": "\u56db\u5835", "OBJECTID": 22, "DEP": "\u6c23\u8c61\u5c40", "STID": 22.0, "COUNTY": "\u81fa\u5317\u7e23", "STATIONID": "C0A54", "V": 22.0, "Y": 2754235.96685469, "X": 324508.66146443}, "id": 21}
{"geometry": {"type": "Point", "coordinates": [121.82347894368056, 24.97132516192228]}, "type": "Feature", "properties": {"TOWN": "\u96d9\u6eaa\u9109", "NAME": "\u6cf0\u5e73", "OBJECTID": 23, "DEP": "\u6c23\u8c61\u5c40", "STID": 23.0, "COUNTY": "\u81fa\u5317\u7e23", "STATIONID": "C0A55", "V": 23.0, "Y": 2763049.9636629, "X": 332314.1709757}, "id": 22}
{"geometry": {"type": "Point", "coordinates": [121.48985876230203, 24.777176270843917]}, "type": "Feature", "properties": {"TOWN": "\u70cf\u4f86\u9109", "NAME": "\u798f\u5c71", "OBJECTID": 24, "DEP": "\u6c23\u8c61\u5c40", "STID": 24.0, "COUNTY": "\u81fa\u5317\u7e23", "STATIONID": "C0A56", "V": 24.0, "Y": 2741382.54066672, "X": 298706.6313604}, "id": 23}
{"geometry": {"type": "Point", "coordinates": [121.65597262053969, 24.84661180458538]}, "type": "Feature", "properties": {"TOWN": "\u70cf\u4f86\u9109", "NAME": "\u6876\u5f8c", "OBJECTID": 25, "DEP": "\u6c23\u8c61\u5c40", "STID": 25.0, "COUNTY": "\u81fa\u5317\u7e23", "STATIONID": "C0A57", "V": 25.0, "Y": 2749143.88096195, "X": 315467.86875201}, "id": 24}
{"geometry": {"type": "Point", "coordinates": [121.54625659433327, 24.922451411339274]}, "type": "Feature", "properties": {"TOWN": "\u65b0\u5e97\u5e02", "NAME": "\u5c48\u5c3a", "OBJECTID": 26, "DEP": "\u6c23\u8c61\u5c40", "STID": 26.0, "COUNTY": "\u81fa\u5317\u7e23", "STATIONID": "C0A58", "V": 26.0, "Y": 2757495.23559373, "X": 304345.32845365}, "id": 25}
{"geometry": {"type": "Point", "coordinates": [121.6659860611316, 25.05161184224946]}, "type": "Feature", "properties": {"TOWN": "\u6c50\u6b62\u93ae", "NAME": "\u5927\u5c16\u5c71", "OBJECTID": 27, "DEP": "\u6c23\u8c61\u5c40", "STID": 27.0, "COUNTY": "\u81fa\u5317\u7e23", "STATIONID": "C0A59", "V": 27.0, "Y": 2771855.7907431, "X": 316368.57787285}, "id": 26}
{"geometry": {"type": "Point", "coordinates": [121.64960533443106, 25.170501977692723]}, "type": "Feature", "properties": {"TOWN": "\u842c\u91cc\u9109", "NAME": "\u5927\u576a", "OBJECTID": 28, "DEP": "\u6c23\u8c61\u5c40", "STID": 28.0, "COUNTY": "\u81fa\u5317\u7e23", "STATIONID": "C0A86", "V": 28.0, "Y": 2785016.97705936, "X": 314652.35591925}, "id": 27}
{"geometry": {"type": "Point", "coordinates": [121.61432568311479, 25.136892704952498]}, "type": "Feature", "properties": {"TOWN": "\u842c\u91cc\u9109", "NAME": "\u4e94\u6307\u5c71", "OBJECTID": 29, "DEP": "\u6c23\u8c61\u5c40", "STID": 29.0, "COUNTY": "\u81fa\u5317\u7e23", "STATIONID": "C0A87", "V": 29.0, "Y": 2781277.45756788, "X": 311112.99066795}, "id": 28}
{"geometry": {"type": "Point", "coordinates": [121.94236946885424, 25.017429802219866]}, "type": "Feature", "properties": {"TOWN": "\u8ca2\u5bee\u9109", "NAME": "\u798f\u9686", "OBJECTID": 30, "DEP": "\u6c23\u8c61\u5c40", "STID": 30.0, "COUNTY": "\u81fa\u5317\u7e23", "STATIONID": "C0A88", "V": 30.0, "Y": 2768235.14779573, "X": 344283.18884285}, "id": 29}
{"geometry": {"type": "Point", "coordinates": [121.86376056971241, 25.03632307875213]}, "type": "Feature", "properties": {"TOWN": "\u96d9\u6eaa\u9109", "NAME": "\u96d9\u6eaa", "OBJECTID": 31, "DEP": "\u6c23\u8c61\u5c40", "STID": 31.0, "COUNTY": "\u81fa\u5317\u7e23", "STATIONID": "C0A89", "V": 31.0, "Y": 2770275.06779763, "X": 336335.54096345}, "id": 30}
{"geometry": {"type": "Point", "coordinates": [121.56544586740443, 25.263840245904994]}, "type": "Feature", "properties": {"TOWN": "\u77f3\u9580\u9109", "NAME": "\u5bcc\u8cb4\u89d2", "OBJECTID": 32, "DEP": "\u6c23\u8c61\u5c40", "STID": 32.0, "COUNTY": "\u81fa\u5317\u7e23", "STATIONID": "C0A92", "V": 32.0, "Y": 2795317.65303695, "X": 306125.28301531}, "id": 31}
{"geometry": {"type": "Point", "coordinates": [121.59405471651118, 25.23494970153755]}, "type": "Feature", "properties": {"TOWN": "\u91d1\u5c71\u9109", "NAME": "\u4e09\u548c", "OBJECTID": 33, "DEP": "\u6c23\u8c61\u5c40", "STID": 33.0, "COUNTY": "\u81fa\u5317\u7e23", "STATIONID": "C0A93", "V": 33.0, "Y": 2792129.91056998, "X": 309021.11034601}, "id": 32}
{"geometry": {"type": "Point", "coordinates": [121.64377561211022, 25.223557992247017]}, "type": "Feature", "properties": {"TOWN": "\u91d1\u5c71\u9109", "NAME": "\u91d1\u5c71", "OBJECTID": 34, "DEP": "\u6c23\u8c61\u5c40", "STID": 34.0, "COUNTY": "\u81fa\u5317\u7e23", "STATIONID": "C0A94", "V": 34.0, "Y": 2790891.12925683, "X": 314036.58055868}, "id": 33}
{"geometry": {"type": "Point", "coordinates": [121.90682089552404, 25.115765323825286]}, "type": "Feature", "properties": {"TOWN": "\u745e\u82b3\u93ae", "NAME": "\u9f3b\u982d\u89d2", "OBJECTID": 35, "DEP": "\u6c23\u8c61\u5c40", "STID": 35.0, "COUNTY": "\u81fa\u5317\u7e23", "STATIONID": "C0A95", "V": 35.0, "Y": 2779103.45154985, "X": 340622.06909544}, "id": 34}
{"geometry": {"type": "Point", "coordinates": [122.00264588586889, 25.00798201203197]}, "type": "Feature", "properties": {"TOWN": "\u8ca2\u5bee\u9109", "NAME": "\u4e09\u8c82\u89d2", "OBJECTID": 36, "DEP": "\u6c23\u8c61\u5c40", "STID": 36.0, "COUNTY": "\u81fa\u5317\u7e23", "STATIONID": "C0A97", "V": 36.0, "Y": 2767232.2663868, "X": 350374.94155252}, "id": 35}
{"geometry": {"type": "Point", "coordinates": [121.47172305024621, 25.108827376687668]}, "type": "Feature", "properties": {"TOWN": "\u58eb\u6797\u5340", "NAME": "\u793e\u5b50", "OBJECTID": 37, "DEP": "\u6c23\u8c61\u5c40", "STID": 37.0, "COUNTY": "\u81fa\u5317\u5e02", "STATIONID": "C0A98", "V": 37.0, "Y": 2778110.88041293, "X": 296745.12825457}, "id": 36}
{"geometry": {"type": "Point", "coordinates": [121.57373271230519, 25.106613898673526]}, "type": "Feature", "properties": {"TOWN": "\u58eb\u6797\u5340", "NAME": "\u5916\u96d9\u6eaa", "OBJECTID": 38, "DEP": "\u6c23\u8c61\u5c40", "STID": 38.0, "COUNTY": "\u81fa\u5317\u5e02", "STATIONID": "C0A99", "V": 38.0, "Y": 2777905.53001274, "X": 307034.20807216}, "id": 37}
{"geometry": {"type": "Point", "coordinates": [121.54334804779603, 25.079126174572608]}, "type": "Feature", "properties": {"TOWN": "\u4e2d\u5c71\u5340", "NAME": "\u5927\u76f4", "OBJECTID": 39, "DEP": "\u6c23\u8c61\u5c40", "STID": 39.0, "COUNTY": "\u81fa\u5317\u5e02", "STATIONID": "C0A9A", "V": 39.0, "Y": 2774848.13954589, "X": 303981.98624531}, "id": 38}
{"geometry": {"type": "Point", "coordinates": [121.51357304913397, 25.115076006965204]}, "type": "Feature", "properties": {"TOWN": "\u5317\u6295\u5340", "NAME": "\u77f3\u724c", "OBJECTID": 40, "DEP": "\u6c23\u8c61\u5c40", "STID": 40.0, "COUNTY": "\u81fa\u5317\u5e02", "STATIONID": "C0A9B", "V": 40.0, "Y": 2778818.41705359, "X": 300963.2056985}, "id": 39}
{"geometry": {"type": "Point", "coordinates": [121.53722369420161, 25.11783932598723]}, "type": "Feature", "properties": {"TOWN": "\u58eb\u6797\u5340", "NAME": "\u5929\u6bcd", "OBJECTID": 41, "DEP": "\u6c23\u8c61\u5c40", "STID": 41.0, "COUNTY": "\u81fa\u5317\u5e02", "STATIONID": "C0A9C", "V": 41.0, "Y": 2779133.78626988, "X": 303347.11507672}, "id": 40}
{"geometry": {"type": "Point", "coordinates": [121.50904069484547, 25.011342584432594]}, "type": "Feature", "properties": {"TOWN": "\u6c38\u548c\u5e02", "NAME": "\u6c38\u548c", "OBJECTID": 42, "DEP": "\u6c23\u8c61\u5c40", "STID": 42.0, "COUNTY": "\u81fa\u5317\u7e23", "STATIONID": "C0A9D", "V": 42.0, "Y": 2767326.60200288, "X": 300549.37056212}, "id": 41}
{"geometry": {"type": "Point", "coordinates": [121.50201994487298, 25.090889072120046]}, "type": "Feature", "properties": {"TOWN": "\u58eb\u6797\u5340", "NAME": "\u58eb\u6797", "OBJECTID": 43, "DEP": "\u6c23\u8c61\u5c40", "STID": 43.0, "COUNTY": "\u81fa\u5317\u5e02", "STATIONID": "C0A9E", "V": 43.0, "Y": 2776134.94287509, "X": 299808.05318543}, "id": 42}
{"geometry": {"type": "Point", "coordinates": [121.5746000591079, 25.079394735324342]}, "type": "Feature", "properties": {"TOWN": "\u5167\u6e56\u5340", "NAME": "\u5167\u6e56", "OBJECTID": 44, "DEP": "\u6c23\u8c61\u5c40", "STID": 44.0, "COUNTY": "\u81fa\u5317\u5e02", "STATIONID": "C0A9F", "V": 44.0, "Y": 2774890.92687393, "X": 307134.50900025}, "id": 43}
{"geometry": {"type": "Point", "coordinates": [121.60338347184526, 25.055808506345187]}, "type": "Feature", "properties": {"TOWN": "\u5357\u6e2f\u5340", "NAME": "\u5357\u6e2f", "OBJECTID": 45, "DEP": "\u6c23\u8c61\u5c40", "STID": 45.0, "COUNTY": "\u81fa\u5317\u5e02", "STATIONID": "C0A9G", "V": 45.0, "Y": 2772291.01045551, "X": 310049.79527496}, "id": 44}
{"geometry": {"type": "Point", "coordinates": [121.48709991319687, 25.063288408157977]}, "type": "Feature", "properties": {"TOWN": "\u4e09\u91cd\u7e23", "NAME": "\u4e09\u91cd", "OBJECTID": 46, "DEP": "\u6c23\u8c61\u5c40", "STID": 46.0, "COUNTY": "\u81fa\u5317\u7e23", "STATIONID": "C0A9I", "V": 46.0, "Y": 2773072.23567224, "X": 298314.11820803}, "id": 45}
{"geometry": {"type": "Point", "coordinates": [121.53763560350876, 24.77106253418709]}, "type": "Feature", "properties": {"TOWN": "\u70cf\u4f86\u9109", "NAME": "\u4e0b\u76c6", "OBJECTID": 47, "DEP": "\u6c23\u8c61\u5c40", "STID": 47.0, "COUNTY": "\u81fa\u5317\u7e23", "STATIONID": "C1A63", "V": 47.0, "Y": 2740723.52985011, "X": 303540.6766769}, "id": 46}
{"geometry": {"type": "Point", "coordinates": [121.66292668411073, 24.993834060849466]}, "type": "Feature", "properties": {"TOWN": "\u77f3\u7887\u9109", "NAME": "\u77f3\u7887", "OBJECTID": 48, "DEP": "\u6c23\u8c61\u5c40", "STID": 48.0, "COUNTY": "\u81fa\u5317\u7e23", "STATIONID": "C1A64", "V": 48.0, "Y": 2765454.41051314, "X": 316091.20571259}, "id": 47}
{"geometry": {"type": "Point", "coordinates": [121.74264860320855, 25.002440809266844]}, "type": "Feature", "properties": {"TOWN": "\u5e73\u6eaa\u9109", "NAME": "\u706b\u71d2\u5bee", "OBJECTID": 49, "DEP": "\u6c23\u8c61\u5c40", "STID": 49.0, "COUNTY": "\u81fa\u5317\u7e23", "STATIONID": "C1A65", "V": 49.0, "Y": 2766449.47355407, "X": 324133.90076008}, "id": 48}
{"geometry": {"type": "Point", "coordinates": [121.80126643339597, 25.113271180126986]}, "type": "Feature", "properties": {"TOWN": "\u745e\u82b3\u93ae", "NAME": "\u745e\u82b3", "OBJECTID": 50, "DEP": "\u6c23\u8c61\u5c40", "STID": 50.0, "COUNTY": "\u81fa\u5317\u7e23", "STATIONID": "C1A66", "V": 50.0, "Y": 2778759.81161353, "X": 329978.28745352}, "id": 49}
{"geometry": {"type": "Point", "coordinates": [121.442654651572, 25.04384639243841]}, "type": "Feature", "properties": {"TOWN": "\u65b0\u838a\u5e02", "NAME": "\u65b0\u838a", "OBJECTID": 51, "DEP": "\u6c23\u8c61\u5c40", "STID": 51.0, "COUNTY": "\u81fa\u5317\u7e23", "STATIONID": "C1A67", "V": 51.0, "Y": 2770903.32943022, "X": 293837.06719587}, "id": 50}
{"geometry": {"type": "Point", "coordinates": [121.43543515872676, 25.0835691215525]}, "type": "Feature", "properties": {"TOWN": "\u4e94\u80a1\u9109", "NAME": "\u4e94\u80a1", "OBJECTID": 52, "DEP": "\u6c23\u8c61\u5c40", "STID": 52.0, "COUNTY": "\u81fa\u5317\u7e23", "STATIONID": "C1A68", "V": 52.0, "Y": 2775300.84764231, "X": 293094.41004317}, "id": 51}
{"geometry": {"type": "Point", "coordinates": [121.58677765342424, 24.979886567818575]}, "type": "Feature", "properties": {"TOWN": "\u6587\u5c71\u5340", "NAME": "\u6728\u67f5", "OBJECTID": 53, "DEP": "\u6c23\u8c61\u5c40", "STID": 53.0, "COUNTY": "\u81fa\u5317\u5e02", "STATIONID": "C1A69", "V": 53.0, "Y": 2763874.08411167, "X": 308410.72557744}, "id": 52}
{"geometry": {"type": "Point", "coordinates": [121.48987224026874, 24.981343587670178]}, "type": "Feature", "properties": {"TOWN": "\u4e2d\u548c\u5e02", "NAME": "\u5357\u52e2\u89d2", "OBJECTID": 54, "DEP": "\u6c23\u8c61\u5c40", "STID": 54.0, "COUNTY": "\u81fa\u5317\u7e23", "STATIONID": "C1A70", "V": 54.0, "Y": 2763996.64756778, "X": 298626.64390433}, "id": 53}
{"geometry": {"type": "Point", "coordinates": [121.37821307234076, 25.076350039324037]}, "type": "Feature", "properties": {"TOWN": "\u6797\u53e3\u9109", "NAME": "\u6797\u53e3", "OBJECTID": 55, "DEP": "\u6c23\u8c61\u5c40", "STID": 55.0, "COUNTY": "\u81fa\u5317\u7e23", "STATIONID": "C1A71", "V": 55.0, "Y": 2774483.85333755, "X": 287324.4710938}, "id": 54}
{"geometry": {"type": "Point", "coordinates": [121.53987386165659, 25.014396462017125]}, "type": "Feature", "properties": {"TOWN": "\u5927\u5b89\u5340", "NAME": "\u516c\u9928", "OBJECTID": 56, "DEP": "\u6c23\u8c61\u5c40", "STID": 56.0, "COUNTY": "\u81fa\u5317\u5e02", "STATIONID": "C1A73", "V": 56.0, "Y": 2767676.90869121, "X": 303660.12294901}, "id": 55}
{"geometry": {"type": "Point", "coordinates": [121.468832901779, 25.133666398383454]}, "type": "Feature", "properties": {"TOWN": "\u6de1\u6c34\u93ae", "NAME": "\u95dc\u6e21", "OBJECTID": 57, "DEP": "\u6c23\u8c61\u5c40", "STID": 57.0, "COUNTY": "\u81fa\u5317\u7e23", "STATIONID": "C1A97", "V": 57.0, "Y": 2780861.18019149, "X": 296444.09145429}, "id": 56}
{"geometry": {"type": "Point", "coordinates": [121.59403460918779, 24.933837689127266]}, "type": "Feature", "properties": {"TOWN": "\u65b0\u5e97\u5e02", "NAME": "\u56db\u5341\u4efd", "OBJECTID": 58, "DEP": "\u6c23\u8c61\u5c40", "STID": 58.0, "COUNTY": "\u81fa\u5317\u7e23", "STATIONID": "C1A9N", "V": 58.0, "Y": 2758776.67149892, "X": 309165.70413814}, "id": 57}
{"geometry": {"type": "Point", "coordinates": [121.58014409521653, 24.9071716895363]}, "type": "Feature", "properties": {"TOWN": "\u77f3\u7887\u9109", "NAME": "\u7fe1\u7fe0", "OBJECTID": 59, "DEP": "\u6c23\u8c61\u5c40", "STID": 59.0, "COUNTY": "\u81fa\u5317\u7e23", "STATIONID": "L1A79", "V": 59.0, "Y": 2755816.97293616, "X": 307775.40295285}, "id": 58}
{"geometry": {"type": "Point", "coordinates": [121.7456968409486, 24.892718130287786]}, "type": "Feature", "properties": {"TOWN": "\u576a\u6797\u9109", "NAME": "\u78a7\u6e56", "OBJECTID": 60, "DEP": "\u6c23\u8c61\u5c40", "STID": 60.0, "COUNTY": "\u81fa\u5317\u7e23", "STATIONID": "L1A80", "V": 60.0, "Y": 2754297.50375075, "X": 324508.32815243}, "id": 59}
{"geometry": {"type": "Point", "coordinates": [121.64986526264599, 24.902445642403265]}, "type": "Feature", "properties": {"TOWN": "\u77f3\u7887\u9109", "NAME": "\u4e5d\u828e\u6839", "OBJECTID": 61, "DEP": "\u6c23\u8c61\u5c40", "STID": 61.0, "COUNTY": "\u81fa\u5317\u7e23", "STATIONID": "L1A81", "V": 61.0, "Y": 2755325.33248771, "X": 314821.09422341}, "id": 60}
{"geometry": {"type": "Point", "coordinates": [121.64959022008489, 24.944112428379594]}, "type": "Feature", "properties": {"TOWN": "\u77f3\u7887\u9109", "NAME": "\u5341\u4e09\u80a1", "OBJECTID": 62, "DEP": "\u6c23\u8c61\u5c40", "STID": 62.0, "COUNTY": "\u81fa\u5317\u7e23", "STATIONID": "L1A82", "V": 62.0, "Y": 2759940.43303601, "X": 314771.25844736}, "id": 61}
{"geometry": {"type": "Point", "coordinates": [121.61597869466438, 24.932169798655107]}, "type": "Feature", "properties": {"TOWN": "\u77f3\u7887\u9109", "NAME": "\u576a\u6797", "OBJECTID": 63, "DEP": "\u6c23\u8c61\u5c40", "STID": 63.0, "COUNTY": "\u81fa\u5317\u7e23", "STATIONID": "L1A83", "V": 63.0, "Y": 2758601.79585076, "X": 311382.84206021}, "id": 62}
{"geometry": {"type": "Point", "coordinates": [121.82820112119823, 24.97188044205099]}, "type": "Feature", "properties": {"TOWN": "\u96d9\u6eaa\u9109", "NAME": "\u592a\u5e73", "OBJECTID": 64, "DEP": "\u6c23\u8c61\u5c40", "STID": 64.0, "COUNTY": "\u81fa\u5317\u7e23", "STATIONID": "L1A84", "V": 64.0, "Y": 2763114.37492696, "X": 332790.59734414}, "id": 63}
{"geometry": {"type": "Point", "coordinates": [121.53895143372142, 25.168728132127395]}, "type": "Feature", "properties": {"TOWN": "\u5317\u6295\u5340", "NAME": "\u6e56\u7530\u570b\u5c0f", "OBJECTID": 65, "DEP": "\u6c34\u5229\u8655", "STID": 65.0, "COUNTY": "\u81fa\u5317\u5e02", "STATIONID": "001", "V": 65.0, "Y": 2784790.49168315, "X": 303487.45914085}, "id": 64}
{"geometry": {"type": "Point", "coordinates": [121.5041291932567, 25.155221671571812]}, "type": "Feature", "properties": {"TOWN": "\u5317\u6295\u5340", "NAME": "\u5927\u5c6f\u570b\u5c0f", "OBJECTID": 66, "DEP": "\u6c34\u5229\u8655", "STID": 66.0, "COUNTY": "\u81fa\u5317\u5e02", "STATIONID": "002", "V": 66.0, "Y": 2783240.90396971, "X": 299992.2167696}, "id": 65}
{"geometry": {"type": "Point", "coordinates": [121.47702391444497, 25.134679892161614]}, "type": "Feature", "properties": {"TOWN": "\u5317\u6295\u5340", "NAME": "\u6843\u6e90\u570b\u4e2d", "OBJECTID": 67, "DEP": "\u6c34\u5229\u8655", "STID": 67.0, "COUNTY": "\u81fa\u5317\u5e02", "STATIONID": "003", "V": 67.0, "Y": 2781489.57084807, "X": 297973.40575972}, "id": 66}
{"geometry": {"type": "Point", "coordinates": [121.49895068046338, 25.13406629405006]}, "type": "Feature", "properties": {"TOWN": "\u5317\u6295\u5340", "NAME": "\u5317\u6295\u570b\u5c0f", "OBJECTID": 68, "DEP": "\u6c34\u5229\u8655", "STID": 68.0, "COUNTY": "\u81fa\u5317\u5e02", "STATIONID": "004", "V": 68.0, "Y": 2780902.93865553, "X": 299630.49606526}, "id": 67}
{"geometry": {"type": "Point", "coordinates": [121.5166543592755, 25.093192230285567]}, "type": "Feature", "properties": {"TOWN": "\u58eb\u6797\u5340", "NAME": "\u967d\u660e\u9ad8\u4e2d", "OBJECTID": 69, "DEP": "\u6c34\u5229\u8655", "STID": 69.0, "COUNTY": "\u81fa\u5317\u5e02", "STATIONID": "005", "V": 69.0, "Y": 2776330.55913127, "X": 301337.35046685}, "id": 68}
{"geometry": {"type": "Point", "coordinates": [121.51183622023346, 25.06146522009316]}, "type": "Feature", "properties": {"TOWN": "\u5927\u540c\u5340", "NAME": "\u592a\u5e73\u570b\u5c0f", "OBJECTID": 70, "DEP": "\u6c34\u5229\u8655", "STID": 70.0, "COUNTY": "\u81fa\u5317\u5e02", "STATIONID": "006", "V": 70.0, "Y": 2772879.50645606, "X": 300810.54240236}, "id": 69}
{"geometry": {"type": "Point", "coordinates": [121.56589948699713, 25.06021132830621]}, "type": "Feature", "properties": {"TOWN": "\u677e\u5c71\u5340", "NAME": "\u6c11\u751f\u570b\u4e2d", "OBJECTID": 71, "DEP": "\u6c34\u5229\u8655", "STID": 71.0, "COUNTY": "\u81fa\u5317\u5e02", "STATIONID": "007", "V": 71.0, "Y": 2772762.34959195, "X": 306265.70311144}, "id": 70}
{"geometry": {"type": "Point", "coordinates": [121.52190746145178, 25.032334049248604]}, "type": "Feature", "properties": {"TOWN": "\u4e2d\u6b63\u5340", "NAME": "\u4e2d\u6b63\u570b\u4e2d", "OBJECTID": 72, "DEP": "\u6c34\u5229\u8655", "STID": 72.0, "COUNTY": "\u81fa\u5317\u5e02", "STATIONID": "008", "V": 72.0, "Y": 2769656.66139705, "X": 301839.09856332}, "id": 71}
{"geometry": {"type": "Point", "coordinates": [121.5583130255234, 25.029558213036186]}, "type": "Feature", "properties": {"TOWN": "\u4fe1\u7fa9\u5340", "NAME": "\u4e09\u8208\u570b\u5c0f", "OBJECTID": 73, "DEP": "\u6c34\u5229\u8655", "STID": 73.0, "COUNTY": "\u81fa\u5317\u5e02", "STATIONID": "009", "V": 73.0, "Y": 2769363.84757278, "X": 305514.28384674}, "id": 72}
{"geometry": {"type": "Point", "coordinates": [121.5456859565877, 25.131654594146013]}, "type": "Feature", "properties": {"TOWN": "\u58eb\u6797\u5340", "NAME": "\u683c\u81f4\u570b\u4e2d", "OBJECTID": 74, "DEP": "\u6c34\u5229\u8655", "STID": 74.0, "COUNTY": "\u81fa\u5317\u5e02", "STATIONID": "010", "V": 74.0, "Y": 2780639.48713528, "X": 304252.23149357}, "id": 73}
{"geometry": {"type": "Point", "coordinates": [121.57656701551717, 25.129337796947457]}, "type": "Feature", "properties": {"TOWN": "\u58eb\u6797\u5340", "NAME": "\u5e73\u7b49\u570b\u5c0f", "OBJECTID": 75, "DEP": "\u6c34\u5229\u8655", "STID": 75.0, "COUNTY": "\u81fa\u5317\u5e02", "STATIONID": "011", "V": 75.0, "Y": 2780423.81007908, "X": 307309.30989641}, "id": 74}
{"geometry": {"type": "Point", "coordinates": [121.55596652126933, 25.103783982618676]}, "type": "Feature", "properties": {"TOWN": "\u58eb\u6797\u5340", "NAME": "\u81f3\u5584\u570b\u4e2d", "OBJECTID": 76, "DEP": "\u6c34\u5229\u8655", "STID": 76.0, "COUNTY": "\u81fa\u5317\u5e02", "STATIONID": "012", "V": 76.0, "Y": 2777541.8469404, "X": 305170.84205442}, "id": 75}
{"geometry": {"type": "Point", "coordinates": [121.59158105987072, 25.084920565764236]}, "type": "Feature", "properties": {"TOWN": "\u5167\u6e56\u5340", "NAME": "\u78a7\u6e56\u570b\u5c0f", "OBJECTID": 77, "DEP": "\u6c34\u5229\u8655", "STID": 77.0, "COUNTY": "\u81fa\u5317\u5e02", "STATIONID": "013", "V": 77.0, "Y": 2775405.49711441, "X": 308839.38951384}, "id": 76}
{"geometry": {"type": "Point", "coordinates": [121.61653970388903, 25.069389777251814]}, "type": "Feature", "properties": {"TOWN": "\u5167\u6e56\u5340", "NAME": "\u6771\u6e56\u570b\u5c0f", "OBJECTID": 78, "DEP": "\u6c34\u5229\u8655", "STID": 78.0, "COUNTY": "\u81fa\u5317\u5e02", "STATIONID": "014", "V": 78.0, "Y": 2773788.4582649, "X": 311328.56506816}, "id": 77}
{"geometry": {"type": "Point", "coordinates": [121.58554588604936, 25.0371518783294]}, "type": "Feature", "properties": {"TOWN": "\u5357\u6e2f\u5340", "NAME": "\u7559\u516c\u570b\u4e2d", "OBJECTID": 79, "DEP": "\u6c34\u5229\u8655", "STID": 79.0, "COUNTY": "\u81fa\u5317\u5e02", "STATIONID": "015", "V": 79.0, "Y": 2770216.57512558, "X": 308258.9603293}, "id": 78}
{"geometry": {"type": "Point", "coordinates": [121.61969689107146, 25.040002875090224]}, "type": "Feature", "properties": {"TOWN": "\u5357\u6e2f\u5340", "NAME": "\u820a\u838a\u570b\u5c0f", "OBJECTID": 80, "DEP": "\u6c34\u5229\u8655", "STID": 80.0, "COUNTY": "\u81fa\u5317\u5e02", "STATIONID": "016", "V": 80.0, "Y": 2770562.8656859, "X": 311682.96788449}, "id": 79}
{"geometry": {"type": "Point", "coordinates": [121.56450846424939, 25.037284337075384]}, "type": "Feature", "properties": {"TOWN": "\u4fe1\u7fa9\u5340", "NAME": "\u5e02\u653f\u4e2d\u5fc3", "OBJECTID": 81, "DEP": "\u6c34\u5229\u8655", "STID": 81.0, "COUNTY": "\u81fa\u5317\u5e02", "STATIONID": "017", "V": 81.0, "Y": 2770222.23029358, "X": 306135.95245532}, "id": 80}
{"geometry": {"type": "Point", "coordinates": [121.57570028440438, 25.002448462865928]}, "type": "Feature", "properties": {"TOWN": "\u6587\u5c71\u5340", "NAME": "\u535a\u5609\u570b\u5c0f", "OBJECTID": 82, "DEP": "\u6c34\u5229\u8655", "STID": 82.0, "COUNTY": "\u81fa\u5317\u5e02", "STATIONID": "018", "V": 82.0, "Y": 2766336.58817796, "X": 307289.18752839}, "id": 81}
{"geometry": {"type": "Point", "coordinates": [121.5776622159225, 24.984641183380734]}, "type": "Feature", "properties": {"TOWN": "\u6587\u5c71\u5340", "NAME": "\u5317\u653f\u570b\u4e2d", "OBJECTID": 83, "DEP": "\u6c34\u5229\u8655", "STID": 83.0, "COUNTY": "\u81fa\u5317\u5e02", "STATIONID": "019", "V": 83.0, "Y": 2764413.75169617, "X": 307521.42509661}, "id": 82}
{"geometry": {"type": "Point", "coordinates": [121.51418951400608, 25.03758511049259]}, "type": "Feature", "properties": {"TOWN": "\u4e2d\u6b63\u5340", "NAME": "\u81fa\u5317", "OBJECTID": 84, "DEP": "\u6c23\u8c61\u5c40", "STID": 0.0, "COUNTY": "\u81fa\u5317\u5e02", "STATIONID": null, "V": 0.0, "Y": 2770235.31368559, "X": 301058.02515459}, "id": 83}
{"geometry": {"type": "Point", "coordinates": [121.56715351450566, 25.029761705136316]}, "type": "Feature", "properties": {"TOWN": "\u4fe1\u7fa9\u5340", "NAME": "\u4fe1\u7fa9", "OBJECTID": 85, "DEP": "\u6c23\u8c61\u5c40", "STID": 0.0, "COUNTY": "\u81fa\u5317\u5e02", "STATIONID": "C0A9H", "V": 0.0, "Y": 2769390.09653281, "X": 306406.36563957}, "id": 84}
{"geometry": {"type": "Point", "coordinates": [121.5226058435111, 25.175440103421234]}, "type": "Feature", "properties": {"TOWN": "\u5317\u6295\u5340", "NAME": "\u5927\u5c6f\u5c71", "OBJECTID": 86, "DEP": "\u6c23\u8c61\u5c40", "STID": 0.0, "COUNTY": "\u81fa\u5317\u5e02", "STATIONID": null, "V": 0.0, "Y": 2785508.25846782, "X": 301848.23085133}, "id": 85}
{"geometry": {"type": "Point", "coordinates": [121.52915682120643, 25.182758292780946]}, "type": "Feature", "properties": {"TOWN": "\u5317\u6295\u5340", "NAME": "\u978d\u90e8", "OBJECTID": 87, "DEP": "\u6c23\u8c61\u5c40", "STID": 0.0, "COUNTY": "\u81fa\u5317\u5e02", "STATIONID": null, "V": 0.0, "Y": 2786321.45117257, "X": 302505.37734794}, "id": 86}
{"geometry": {"type": "Point", "coordinates": [121.5454578310642, 24.98660306195024]}, "type": "Feature", "properties": {"TOWN": "\u6587\u5c71\u5340", "NAME": "\u813e\u8179", "OBJECTID": 88, "DEP": "\u6c34\u5229\u8655", "STID": 0.0, "COUNTY": "\u81fa\u5317\u5e02", "STATIONID": "06", "V": 0.0, "Y": 2764602.19675235, "X": 304229.44198954}, "id": 87}
{"geometry": {"type": "Point", "coordinates": [121.48887863143996, 25.03039682544755]}, "type": "Feature", "properties": {"TOWN": "\u842c\u83ef\u5340", "NAME": "\u96d9\u5712", "OBJECTID": 89, "DEP": "\u6c34\u5229\u8655", "STID": 0.0, "COUNTY": "\u81fa\u5317\u5e02", "STATIONID": "09", "V": 0.0, "Y": 2769442.78210085, "X": 298493.7984642}, "id": 88}
{"geometry": {"type": "Point", "coordinates": [121.58249533923082, 25.05244277787083]}, "type": "Feature", "properties": {"TOWN": "\u5357\u6e2f\u5340", "NAME": "\u7389\u6210", "OBJECTID": 90, "DEP": "\u6c34\u5229\u8655", "STID": 0.0, "COUNTY": "\u81fa\u5317\u5e02", "STATIONID": "15", "V": 0.0, "Y": 2771908.96143115, "X": 307943.829961}, "id": 89}
{"geometry": {"type": "Point", "coordinates": [121.52892722676998, 25.07246978638624]}, "type": "Feature", "properties": {"TOWN": "\u4e2d\u5c71\u5340", "NAME": "\u5efa\u570b", "OBJECTID": 91, "DEP": "\u6c34\u5229\u8655", "STID": 0.0, "COUNTY": "\u81fa\u5317\u5e02", "STATIONID": "22", "V": 0.0, "Y": 2774105.0674172, "X": 302530.12653196}, "id": 90}
{"geometry": {"type": "Point", "coordinates": [121.52899050430767, 25.099811056226773]}, "type": "Feature", "properties": {"TOWN": "\u58eb\u6797\u5340", "NAME": "\u798f\u5fb7", "OBJECTID": 92, "DEP": "\u6c34\u5229\u8655", "STID": 0.0, "COUNTY": "\u81fa\u5317\u5e02", "STATIONID": "31", "V": 0.0, "Y": 2777098.17410798, "X": 302510.90809994}, "id": 91}
{"geometry": {"type": "Point", "coordinates": [121.50330526400076, 25.124099308201302]}, "type": "Feature", "properties": {"TOWN": "\u5317\u6295\u5340", "NAME": "\u5947\u5ca9", "OBJECTID": 93, "DEP": "\u6c34\u5229\u8655", "STID": 0.0, "COUNTY": "\u81fa\u5317\u5e02", "STATIONID": "35", "V": 0.0, "Y": 2779828.85647853, "X": 299927.70156954}, "id": 92}
{"geometry": {"type": "Point", "coordinates": [121.47478383485125, 25.10561237489398]}, "type": "Feature", "properties": {"TOWN": "\u58eb\u6797\u5340", "NAME": "\u4e2d\u6d32", "OBJECTID": 94, "DEP": "\u6c34\u5229\u8655", "STID": 0.0, "COUNTY": "\u81fa\u5317\u5e02", "STATIONID": "14", "V": 0.0, "Y": 2777800.66063664, "X": 297080.96339089}, "id": 93}
{"geometry": {"type": "Point", "coordinates": [121.52443456042589, 25.11872667615928]}, "type": "Feature", "properties": {"TOWN": "\u5317\u6295\u5340", "NAME": "\u78fa\u6eaa\u6a4b", "OBJECTID": 95, "DEP": "\u6c34\u5229\u8655", "STID": 0.0, "COUNTY": "\u81fa\u5317\u5e02", "STATIONID": "404", "V": 0.0, "Y": 2779227.0, "X": 302057.0}, "id": 94}
{"geometry": {"type": "Point", "coordinates": [121.50187529533262, 25.13888725416092]}, "type": "Feature", "properties": {"TOWN": "\u5317\u6295\u5340", "NAME": "\u4e2d\u548c\u6a4b", "OBJECTID": 96, "DEP": "\u6c34\u5229\u8655", "STID": 0.0, "COUNTY": "\u81fa\u5317\u5e02", "STATIONID": "403", "V": 0.0, "Y": 2781473.0, "X": 299778.0}, "id": 95}
{"geometry": {"type": "Point", "coordinates": [121.62322141847532, 25.077238858767167]}, "type": "Feature", "properties": {"TOWN": "\u5167\u6e56\u5340", "NAME": "\u767d\u99ac\u5c71\u838a", "OBJECTID": 97, "DEP": "\u6c34\u5229\u8655", "STID": 0.0, "COUNTY": "\u81fa\u5317\u5e02", "STATIONID": "402", "V": 0.0, "Y": 2774666.0, "X": 312093.0}, "id": 96}
{"geometry": {"type": "Point", "coordinates": [121.56961123860889, 25.113931143935066]}, "type": "Feature", "properties": {"TOWN": "\u58eb\u6797\u5340", "NAME": "\u96d9\u6eaa", "OBJECTID": 98, "DEP": "\u6c34\u5229\u8655", "STID": 0.0, "COUNTY": "\u81fa\u5317\u5e02", "STATIONID": "41", "V": 0.0, "Y": 2778672.88, "X": 306437.28}, "id": 97}
{"geometry": {"type": "Point", "coordinates": [121.54258494659908, 25.097120547003488]}, "type": "Feature", "properties": {"TOWN": "\u58eb\u6797\u5340", "NAME": "\u671b\u661f\u6a4b", "OBJECTID": 99, "DEP": "\u6c34\u5229\u8655", "STID": 0.0, "COUNTY": "\u81fa\u5317\u5e02", "STATIONID": "401", "V": 0.0, "Y": 2776841.0, "X": 303897.0}, "id": 98}
{"geometry": {"type": "Point", "coordinates": [121.62073622645958, 25.041346293935604]}, "type": "Feature", "properties": {"TOWN": "\u5357\u6e2f\u5340", "NAME": "\u5b9c\u8208\u6a4b", "OBJECTID": 100, "DEP": "\u6c34\u5229\u8655", "STID": 0.0, "COUNTY": "\u81fa\u5317\u5e02", "STATIONID": "405", "V": 0.0, "Y": 2770697.0, "X": 311808.0}, "id": 99}
{"geometry": {"type": "Point", "coordinates": [121.53082956684564, 25.04924719741138]}, "type": "Feature", "properties": {"TOWN": "\u4e2d\u5c71\u5340", "NAME": "\u9577\u5b89\u570b\u5c0f", "OBJECTID": 101, "DEP": "\u6c34\u5229\u8655", "STID": 0.0, "COUNTY": "\u81fa\u5317\u5e02", "STATIONID": "020", "V": 0.0, "Y": 0.0, "X": 0.0}, "id": 100}
    ]
}