{ "type": "FeatureCollection", 
  "features": [
{"geometry": {"type": "Point", "coordinates": [121.54425090042977, 25.021611886900516]}, "type": "Feature", "properties": {"website": "http://www.dahc.taipei.gov.tw/", "ggstat": "OK", "tel": "2733-5831", "addr": "\u53f0\u5317\u5e02\u8f9b\u4ea5\u8def\u4e09\u6bb515\u865f", "district": "\u5927\u5b89", "gglon": "121.544274", "Y": "25.021611886900516", "X": "121.54425090042977", "gglat": "25.0215769", "name": "\u5927\u5b89\u5340\u5065\u5eb7\u670d\u52d9\u4e2d\u5fc3"}, "id": 1}
{"geometry": {"type": "Point", "coordinates": [121.51629356438376, 25.06585179347907]}, "type": "Feature", "properties": {"website": "http://www.dthc.taipei.gov.tw/", "ggstat": "OK", "tel": "2585-3227", "addr": "\u53f0\u5317\u5e02\u660c\u5409\u885752\u865f", "district": "\u5927\u540c", "gglon": "121.516493", "Y": "25.06585179347907", "X": "121.51629356438376", "gglat": "25.0657609", "name": "\u5927\u540c\u5340\u5065\u5eb7\u670d\u52d9\u4e2d\u5fc3"}, "id": 2}
{"geometry": {"type": "Point", "coordinates": [121.51723390366662, 25.118148317061138]}, "type": "Feature", "properties": {"website": "http://www.bthc.taipei.gov.tw/", "ggstat": "OK", "tel": "2826-1026", "addr": "\u53f0\u5317\u5e02\u77f3\u724c\u8def\u4e8c\u6bb5111\u865f", "district": "\u5317\u6295", "gglon": "121.517118", "Y": "25.118148317061138", "X": "121.51723390366662", "gglat": "25.1180311", "name": "\u5317\u6295\u5340\u5065\u5eb7\u670d\u52d9\u4e2d\u5fc3"}, "id": 3}
{"geometry": {"type": "Point", "coordinates": [121.5159051275657, 25.030531310117237]}, "type": "Feature", "properties": {"website": "http://www.zzhc.taipei.gov.tw/", "ggstat": "OK", "tel": "2321-5158", "addr": "\u53f0\u5317\u5e02\u726f\u5dba\u885724\u865f", "district": "\u4e2d\u6b63", "gglon": "121.515995", "Y": "25.030531310117237", "X": "121.5159051275657", "gglat": "25.0304239", "name": "\u4e2d\u6b63\u5340\u5065\u5eb7\u670d\u52d9\u4e2d\u5fc3"}, "id": 4}
{"geometry": {"type": "Point", "coordinates": [121.58887522693406, 25.069264418585334]}, "type": "Feature", "properties": {"website": "http://www.nhhc.taipei.gov.tw/", "ggstat": "OK", "tel": "2791-1162", "addr": "\u53f0\u5317\u5e02\u6c11\u6b0a\u6771\u8def\u516d\u6bb599\u865f", "district": "\u5167\u6e56", "gglon": "121.5890989", "Y": "25.069264418585334", "X": "121.58887522693406", "gglat": "25.0692308", "name": "\u5167\u6e56\u5340\u5065\u5eb7\u670d\u52d9\u4e2d\u5fc3"}, "id": 5}
{"geometry": {"type": "Point", "coordinates": [121.57004053901092, 24.98964000609305]}, "type": "Feature", "properties": {"website": "http://www.wshc.taipei.gov.tw/", "ggstat": "OK", "tel": "2234-3501", "addr": "\u53f0\u5317\u5e02\u6728\u67f5\u8def\u4e09\u6bb5220\u865f", "district": "\u6587\u5c71", "gglon": "121.5700826", "Y": "24.98964000609305", "X": "121.57004053901092", "gglat": "24.98964", "name": "\u6587\u5c71\u5340\u5065\u5eb7\u670d\u52d9\u4e2d\u5fc3"}, "id": 6}
{"geometry": {"type": "Point", "coordinates": [121.53345397486356, 25.064431108399198]}, "type": "Feature", "properties": {"website": "http://www.zshc.taipei.gov.tw/", "ggstat": "OK", "tel": "2501-4616", "addr": "\u53f0\u5317\u5e02\u677e\u6c5f\u8def367\u865f", "district": "\u4e2d\u5c71", "gglon": "121.5334558", "Y": "25.064431108399198", "X": "121.53345397486356", "gglat": "25.0644075", "name": "\u4e2d\u5c71\u5340\u5065\u5eb7\u670d\u52d9\u4e2d\u5fc3"}, "id": 7}
{"geometry": {"type": "Point", "coordinates": [121.60671173753589, 25.054568027099258]}, "type": "Feature", "properties": {"website": "http://www.nghc.taipei.gov.tw/", "ggstat": "OK", "tel": "2728-5220", "addr": "\u53f0\u5317\u5e02\u5357\u6e2f\u8def\u4e00\u6bb5360\u865f", "district": "\u5357\u6e2f", "gglon": "121.6067809", "Y": "25.054568027099258", "X": "121.60671173753589", "gglat": "25.0545142", "name": "\u5357\u6e2f\u5340\u5065\u5eb7\u670d\u52d9\u4e2d\u5fc3"}, "id": 8}
{"geometry": {"type": "Point", "coordinates": [121.56685048677473, 25.03318458821027]}, "type": "Feature", "properties": {"website": "http://www.xyhc.taipei.gov.tw/", "ggstat": "OK", "tel": "2723-4598", "addr": "\u53f0\u5317\u5e02\u4fe1\u7fa9\u8def\u4e94\u6bb515\u865f", "district": "\u4fe1\u7fa9", "gglon": "121.5668638", "Y": "25.03318458821027", "X": "121.56685048677473", "gglat": "25.0331204", "name": "\u4fe1\u7fa9\u5340\u5065\u5eb7\u670d\u52d9\u4e2d\u5fc3"}, "id": 9}
{"geometry": {"type": "Point", "coordinates": [121.49756771171121, 25.023213721940976]}, "type": "Feature", "properties": {"website": "http://www.whhc.taipei.gov.tw/", "ggstat": "OK", "tel": "2303-3092", "addr": "\u53f0\u5317\u5e02\u6771\u5712\u8857152\u865f", "district": "\u842c\u83ef", "gglon": "121.4976418", "Y": "25.023213721940976", "X": "121.49756771171121", "gglat": "25.0231751", "name": "\u842c\u83ef\u5340\u5065\u5eb7\u670d\u52d9\u4e2d\u5fc3"}, "id": 10}
{"geometry": {"type": "Point", "coordinates": [121.57720551131273, 25.049920882061947]}, "type": "Feature", "properties": {"website": "http://www.sshc.taipei.gov.tw/", "ggstat": "OK", "tel": "2767-1757", "addr": "\u53f0\u5317\u5dff\u516b\u5fb7\u8def\u56db\u6bb5692\u865f", "district": "\u677e\u5c71", "gglon": "121.300566", "Y": "25.049920882061947", "X": "121.57720551131273", "gglat": "24.965904", "name": "\u677e\u5c71\u5340\u5065\u5eb7\u670d\u52d9\u4e2d\u5fc3"}, "id": 11}
{"geometry": {"type": "Point", "coordinates": [121.51965037114232, 25.092881348908755]}, "type": "Feature", "properties": {"website": "http://www.slhc.taipei.gov.tw/", "ggstat": "OK", "tel": "2881-3039", "addr": "\u53f0\u5317\u5e02\u4e2d\u6b63\u8def439\u865f", "district": "\u58eb\u6797", "gglon": "121.5195592", "Y": "25.092881348908755", "X": "121.51965037114232", "gglat": "25.0927619", "name": "\u58eb\u6797\u5340\u5065\u5eb7\u670d\u52d9\u4e2d\u5fc3"}, "id": 12}
    ]
}