{
"type": "FeatureCollection",
                                                                                
"features": [
{ "type": "Feature", "properties": { "CITYZONE": "北投區", "NAME": "鈉叡股份有限公司", "S_NAME": "溫馨加氣站", "SUPPLIER": null, "ADDRESS": "承德路六段３３３號", "PHONE": "02-28285798", "DUTY_TIME": "24小時", "UN_98": null, "UN_95": null, "UN_92": null, "DIESEL": null, "ADDR_X": 300718.96154166670749, "ADDR_Y": 2777875.076125, "ALC_GASOLI": null, "ATMONS": "Y", "X84": "121.5118250", "Y84": "25.1026300" }, "geometry": { "type": "Point", "coordinates": [ 121.511115791376099, 25.106567989649662 ] } }
,
{ "type": "Feature", "properties": { "CITYZONE": "士林區", "NAME": "全國", "S_NAME": "全國洲美站", "SUPPLIER": "台塑", "ADDRESS": "延平北路六段505號", "PHONE": "02-88113031", "DUTY_TIME": "24小時", "UN_98": "Y", "UN_95": "Y", "UN_92": "Y", "DIESEL": "Y", "ADDR_X": 299426.043, "ADDR_Y": 2776389.888, "ALC_GASOLI": null, "ATMONS": null, "X84": "121.4980640", "Y84": "25.0932500" }, "geometry": { "type": "Point", "coordinates": [ 121.498242093818263, 25.093203456526354 ] } }
,
{ "type": "Feature", "properties": { "CITYZONE": "松山區", "NAME": "中油", "S_NAME": "濱江大直橋加油加氣站", "SUPPLIER": "中油直營站", "ADDRESS": "濱江街373號", "PHONE": "02-25177975", "DUTY_TIME": "24小時", "UN_98": "Y", "UN_95": "Y", "UN_92": "Y", "DIESEL": "Y", "ADDR_X": 304854.0, "ADDR_Y": 2774144.0, "ALC_GASOLI": null, "ATMONS": "Y", "X84": "121.5513038", "Y84": "25.0724301" }, "geometry": { "type": "Point", "coordinates": [ 121.551963629136736, 25.072737387952042 ] } }
,
{ "type": "Feature", "properties": { "CITYZONE": "士林區", "NAME": "中油", "S_NAME": "社子站", "SUPPLIER": "中油直營站", "ADDRESS": "重慶北路四段198號", "PHONE": "02-28122647", "DUTY_TIME": "24小時", "UN_98": null, "UN_95": "Y", "UN_92": "Y", "DIESEL": null, "ADDR_X": 300789.698, "ADDR_Y": 2775505.078, "ALC_GASOLI": null, "ATMONS": null, "X84": "121.5118200", "Y84": "25.0848860" }, "geometry": { "type": "Point", "coordinates": [ 121.511728123918004, 25.085169443713255 ] } }
,
{ "type": "Feature", "properties": { "CITYZONE": "士林區", "NAME": "中油", "S_NAME": "福林站", "SUPPLIER": "中油直營站", "ADDRESS": "中山北路五段465號", "PHONE": "02-28812420", "DUTY_TIME": "24小時", "UN_98": "Y", "UN_95": "Y", "UN_92": "Y", "DIESEL": "Y", "ADDR_X": 302356.568, "ADDR_Y": 2777015.133, "ALC_GASOLI": null, "ATMONS": null, "X84": "121.5276600", "Y84": "25.0923970" }, "geometry": { "type": "Point", "coordinates": [ 121.527319428937773, 25.098747674938007 ] } }
,
{ "type": "Feature", "properties": { "CITYZONE": "士林區", "NAME": "中油", "S_NAME": "陽明山站", "SUPPLIER": "中油直營站", "ADDRESS": "(陽明山)格致路3號", "PHONE": "02-28616052", "DUTY_TIME": "24小時", "UN_98": "Y", "UN_95": "Y", "UN_92": "Y", "DIESEL": null, "ADDR_X": 304199.462, "ADDR_Y": 2781103.658, "ALC_GASOLI": null, "ATMONS": null, "X84": "121.5598345", "Y84": "25.0910750" }, "geometry": { "type": "Point", "coordinates": [ 121.545754487277406, 25.135592115322762 ] } }
,
{ "type": "Feature", "properties": { "CITYZONE": "士林區", "NAME": "中油", "S_NAME": "文林路站", "SUPPLIER": "中油直營站", "ADDRESS": "文林路100號", "PHONE": "02-28817934", "DUTY_TIME": "24小時", "UN_98": "Y", "UN_95": "Y", "UN_92": "Y", "DIESEL": null, "ADDR_X": 302237.307, "ADDR_Y": 2775776.878, "ALC_GASOLI": "Y", "ATMONS": null, "X84": "121.5262580", "Y84": "25.0874770" }, "geometry": { "type": "Point", "coordinates": [ 121.526089218353889, 25.087573042065884 ] } }
,
{ "type": "Feature", "properties": { "CITYZONE": "士林區", "NAME": "西歐", "S_NAME": "士林站", "SUPPLIER": "台塑", "ADDRESS": "中山北路五段570號", "PHONE": "02-28812342", "DUTY_TIME": "24小時", "UN_98": "Y", "UN_95": "Y", "UN_92": "Y", "DIESEL": null, "ADDR_X": 302451.194, "ADDR_Y": 2776673.764, "ALC_GASOLI": null, "ATMONS": null, "X84": "121.5281640", "Y84": "25.0956630" }, "geometry": { "type": "Point", "coordinates": [ 121.528244352304625, 25.095662497084817 ] } }
,
{ "type": "Feature", "properties": { "CITYZONE": "士林區", "NAME": "同宏", "S_NAME": "芝山站", "SUPPLIER": "台塑", "ADDRESS": "至誠路二段40號", "PHONE": "02-28320320", "DUTY_TIME": "24小時", "UN_98": "Y", "UN_95": "Y", "UN_92": "Y", "DIESEL": null, "ADDR_X": 302497.2, "ADDR_Y": 2777374.828, "ALC_GASOLI": null, "ATMONS": null, "X84": "121.5287450", "Y84": "25.1019822" }, "geometry": { "type": "Point", "coordinates": [ 121.528727671691541, 25.101989994398423 ] } }
,
{ "type": "Feature", "properties": { "CITYZONE": "士林區", "NAME": "全國", "S_NAME": "全國台北交流道站", "SUPPLIER": "台塑", "ADDRESS": "重慶北路四段141號", "PHONE": "02-28118028", "DUTY_TIME": "24小時", "UN_98": "Y", "UN_95": "Y", "UN_92": "Y", "DIESEL": "Y", "ADDR_X": 300820.707, "ADDR_Y": 2775250.32, "ALC_GASOLI": null, "ATMONS": null, "X84": "121.5120500", "Y84": "25.0828700" }, "geometry": { "type": "Point", "coordinates": [ 121.51202595726329, 25.082868447704342 ] } }
,
{ "type": "Feature", "properties": { "CITYZONE": "士林區", "NAME": "西歐", "S_NAME": "基河站", "SUPPLIER": "台塑", "ADDRESS": "承德路四段200號", "PHONE": "02-28815335", "DUTY_TIME": "24小時", "UN_98": "Y", "UN_95": "Y", "UN_92": "Y", "DIESEL": "Y", "ADDR_X": 301824.13, "ADDR_Y": 2775788.821, "ALC_GASOLI": null, "ATMONS": null, "X84": "121.5220100", "Y84": "25.0876510" }, "geometry": { "type": "Point", "coordinates": [ 121.521993644283185, 25.087695329218892 ] } }
,
{ "type": "Feature", "properties": { "CITYZONE": "大同區", "NAME": "中油", "S_NAME": "民權西路站", "SUPPLIER": "中油直營站", "ADDRESS": "民權西路194號", "PHONE": "02-25575809", "DUTY_TIME": "24小時", "UN_98": "Y", "UN_95": "Y", "UN_92": "Y", "DIESEL": null, "ADDR_X": 301049.97, "ADDR_Y": 2773032.485, "ALC_GASOLI": null, "ATMONS": null, "X84": "121.5144673", "Y84": "25.0628854" }, "geometry": { "type": "Point", "coordinates": [ 121.514215049056233, 25.062838122215613 ] } }
,
{ "type": "Feature", "properties": { "CITYZONE": "大安區", "NAME": "中油", "S_NAME": "龍安站", "SUPPLIER": "中油直營站", "ADDRESS": "和平東路二段2號", "PHONE": "02-23631735", "DUTY_TIME": "24小時", "UN_98": "Y", "UN_95": "Y", "UN_92": "Y", "DIESEL": null, "ADDR_X": 303187.604, "ADDR_Y": 2768937.688, "ALC_GASOLI": "Y", "ATMONS": null, "X84": "121.5353060", "Y84": "25.0258120" }, "geometry": { "type": "Point", "coordinates": [ 121.535241711074903, 25.025795664743089 ] } }
,
{ "type": "Feature", "properties": { "CITYZONE": "大安區", "NAME": "勝利身心障礙潛能發展中心", "S_NAME": "勝利站", "SUPPLIER": "中油加盟站", "ADDRESS": "建國南路二段75之1號", "PHONE": "02-277555499", "DUTY_TIME": "24小時", "UN_98": "Y", "UN_95": "Y", "UN_92": "Y", "DIESEL": null, "ADDR_X": 303447.15, "ADDR_Y": 2769520.597, "ALC_GASOLI": null, "ATMONS": null, "X84": "121.5380598", "Y84": "25.0310122" }, "geometry": { "type": "Point", "coordinates": [ 121.537836365784202, 25.031048856759188 ] } }
,
{ "type": "Feature", "properties": { "CITYZONE": "大安區", "NAME": "中油", "S_NAME": "金山南路站", "SUPPLIER": "中油直營站", "ADDRESS": "金山南路二段77號", "PHONE": "02-23518346", "DUTY_TIME": "7~24時", "UN_98": "Y", "UN_95": "Y", "UN_92": "Y", "DIESEL": null, "ADDR_X": 302371.418, "ADDR_Y": 2769572.135, "ALC_GASOLI": null, "ATMONS": null, "X84": "121.5269420", "Y84": "25.0315640" }, "geometry": { "type": "Point", "coordinates": [ 121.527178986454871, 25.031552333550547 ] } }
,
{ "type": "Feature", "properties": { "CITYZONE": "大安區", "NAME": "中油", "S_NAME": "新生南路站", "SUPPLIER": "中油直營站", "ADDRESS": "仁愛路三段1號", "PHONE": "02-27112316", "DUTY_TIME": "7~22時", "UN_98": "Y", "UN_95": "Y", "UN_92": "Y", "DIESEL": null, "ADDR_X": 302973.608, "ADDR_Y": 2770349.798, "ALC_GASOLI": null, "ATMONS": null, "X84": "121.5331030", "Y84": "25.0384250" }, "geometry": { "type": "Point", "coordinates": [ 121.533176426185307, 25.038551750624016 ] } }
,
{ "type": "Feature", "properties": { "CITYZONE": "大安區", "NAME": "陽光社會福利基金會", "S_NAME": "陽光站", "SUPPLIER": "中油加盟站", "ADDRESS": "建國南路一段57之1號", "PHONE": "02-27733453", "DUTY_TIME": "24小時", "UN_98": "Y", "UN_95": "Y", "UN_92": "Y", "DIESEL": null, "ADDR_X": 303317.036, "ADDR_Y": 2771009.473, "ALC_GASOLI": null, "ATMONS": null, "X84": "121.5370029", "Y84": "25.0443820" }, "geometry": { "type": "Point", "coordinates": [ 121.536605556561597, 25.044495005050599 ] } }
,
{ "type": "Feature", "properties": { "CITYZONE": "大安區", "NAME": "中油", "S_NAME": "富陽街站", "SUPPLIER": "中油直營站", "ADDRESS": "富陽街129號", "PHONE": "02-27324229", "DUTY_TIME": "24小時", "UN_98": "Y", "UN_95": "Y", "UN_92": "Y", "DIESEL": "Y", "ADDR_X": 305375.628, "ADDR_Y": 2768215.19, "ALC_GASOLI": "Y", "ATMONS": null, "X84": "121.5569259", "Y84": "25.0191322" }, "geometry": { "type": "Point", "coordinates": [ 121.556892301422479, 25.019193352899045 ] } }
,
{ "type": "Feature", "properties": { "CITYZONE": "大安區", "NAME": "中油", "S_NAME": "基隆路站", "SUPPLIER": "中油直營站", "ADDRESS": "基隆路二段162號", "PHONE": "02-27383992", "DUTY_TIME": "24小時", "UN_98": "Y", "UN_95": "Y", "UN_92": "Y", "DIESEL": null, "ADDR_X": 305263.142, "ADDR_Y": 2769163.934, "ALC_GASOLI": null, "ATMONS": null, "X84": "121.5558650", "Y84": "25.0276060" }, "geometry": { "type": "Point", "coordinates": [ 121.555816371364656, 25.027762719395465 ] } }
,
{ "type": "Feature", "properties": { "CITYZONE": "中山區", "NAME": "中油", "S_NAME": "中崙站", "SUPPLIER": "中油直營站", "ADDRESS": "八德路二段214號", "PHONE": "02-27712548", "DUTY_TIME": "24小時", "UN_98": "Y", "UN_95": "Y", "UN_92": "Y", "DIESEL": "Y", "ADDR_X": 303618.473, "ADDR_Y": 2771227.295, "ALC_GASOLI": "Y", "ATMONS": null, "X84": "121.5396010", "Y84": "25.0463590" }, "geometry": { "type": "Point", "coordinates": [ 121.539601408174391, 25.0464506664628 ] } }
,
{ "type": "Feature", "properties": { "CITYZONE": "中山區", "NAME": "中油", "S_NAME": "建國北路站", "SUPPLIER": "中油直營站", "ADDRESS": "建國北路三段91之1號", "PHONE": "02-25014338", "DUTY_TIME": "24小時", "UN_98": "Y", "UN_95": "Y", "UN_92": "Y", "DIESEL": null, "ADDR_X": 303322.676, "ADDR_Y": 2773366.862, "ALC_GASOLI": null, "ATMONS": null, "X84": "121.5367330", "Y84": "25.0656350" }, "geometry": { "type": "Point", "coordinates": [ 121.536754141279502, 25.065777127203322 ] } }
,
{ "type": "Feature", "properties": { "CITYZONE": "中山區", "NAME": "中油", "S_NAME": "吉林路站", "SUPPLIER": "中油直營站", "ADDRESS": "吉林路31號", "PHONE": "02-25417952", "DUTY_TIME": "7~22時", "UN_98": null, "UN_95": "Y", "UN_92": "Y", "DIESEL": null, "ADDR_X": 302663.465, "ADDR_Y": 2771727.929, "ALC_GASOLI": null, "ATMONS": null, "X84": "121.5302000", "Y84": "25.0508930" }, "geometry": { "type": "Point", "coordinates": [ 121.530156548301008, 25.051004437119399 ] } }
,
{ "type": "Feature", "properties": { "CITYZONE": "中山區", "NAME": "中油", "S_NAME": "大直站", "SUPPLIER": "中油直營站", "ADDRESS": "明水路661號", "PHONE": "02-25320154", "DUTY_TIME": "24小時", "UN_98": "Y", "UN_95": "Y", "UN_92": "Y", "DIESEL": "Y", "ADDR_X": 304705.85, "ADDR_Y": 2775433.857, "ALC_GASOLI": null, "ATMONS": null, "X84": "121.5506530", "Y84": "25.0842490" }, "geometry": { "type": "Point", "coordinates": [ 121.550547204965056, 25.08438750640984 ] } }
,
{ "type": "Feature", "properties": { "CITYZONE": "中山區", "NAME": "中油", "S_NAME": "新生北路站", "SUPPLIER": "中油直營站", "ADDRESS": "新生北路二段71號", "PHONE": "02-25815206", "DUTY_TIME": "24小時", "UN_98": "Y", "UN_95": "Y", "UN_92": "Y", "DIESEL": null, "ADDR_X": 302445.762, "ADDR_Y": 2772348.792, "ALC_GASOLI": null, "ATMONS": null, "X84": "121.5280500", "Y84": "25.0565519" }, "geometry": { "type": "Point", "coordinates": [ 121.528023006743851, 25.056617234211309 ] } }
,
{ "type": "Feature", "properties": { "CITYZONE": "中山區", "NAME": "長安", "S_NAME": "長安站", "SUPPLIER": "中油加盟站", "ADDRESS": "長安東路二段34號", "PHONE": "02-25671667", "DUTY_TIME": "24小時", "UN_98": "Y", "UN_95": "Y", "UN_92": "Y", "DIESEL": null, "ADDR_X": 302779.722, "ADDR_Y": 2771443.982, "ALC_GASOLI": null, "ATMONS": null, "X84": "121.5311940", "Y84": "25.0483370" }, "geometry": { "type": "Point", "coordinates": [ 121.53129766931464, 25.04843686464848 ] } }
,
{ "type": "Feature", "properties": { "CITYZONE": "中山區", "NAME": "西歐", "S_NAME": "大直橋站", "SUPPLIER": "台塑", "ADDRESS": "濱江街333號", "PHONE": "02-25033166", "DUTY_TIME": "24小時", "UN_98": "Y", "UN_95": "Y", "UN_92": "Y", "DIESEL": "Y", "ADDR_X": 304419.703, "ADDR_Y": 2774121.926, "ALC_GASOLI": null, "ATMONS": "Y", "X84": "121.5477810", "Y84": "25.0724150" }, "geometry": { "type": "Point", "coordinates": [ 121.547657875198865, 25.072554051785538 ] } }
,
{ "type": "Feature", "properties": { "CITYZONE": "中正區", "NAME": "中油", "S_NAME": "莒光路站", "SUPPLIER": "中油直營站", "ADDRESS": "莒光路2號", "PHONE": "02-23028385", "DUTY_TIME": "24小時", "UN_98": "Y", "UN_95": "Y", "UN_92": "Y", "DIESEL": null, "ADDR_X": 300365.59, "ADDR_Y": 2769558.722, "ALC_GASOLI": null, "ATMONS": null, "X84": "121.5073019", "Y84": "25.0313930" }, "geometry": { "type": "Point", "coordinates": [ 121.507302719768703, 25.031500417202007 ] } }
,
{ "type": "Feature", "properties": { "CITYZONE": "中正區", "NAME": "中油", "S_NAME": "汀州路站", "SUPPLIER": "中油直營站", "ADDRESS": "汀州路三段1號", "PHONE": "02-23655595", "DUTY_TIME": "24小時", "UN_98": "Y", "UN_95": "Y", "UN_92": "Y", "DIESEL": null, "ADDR_X": 302246.884, "ADDR_Y": 2768376.131, "ALC_GASOLI": null, "ATMONS": null, "X84": "121.5258080", "Y84": "25.0207580" }, "geometry": { "type": "Point", "coordinates": [ 121.525898959008998, 25.02075921409817 ] } }
,
{ "type": "Feature", "properties": { "CITYZONE": "中正區", "NAME": "中油", "S_NAME": "林森北路站", "SUPPLIER": "中油直營站", "ADDRESS": "林森北路11號", "PHONE": "02-23410686", "DUTY_TIME": "24小時", "UN_98": "Y", "UN_95": "Y", "UN_92": "Y", "DIESEL": null, "ADDR_X": 302040.415, "ADDR_Y": 2771163.718, "ALC_GASOLI": "Y", "ATMONS": null, "X84": "121.5238870", "Y84": "25.0461449" }, "geometry": { "type": "Point", "coordinates": [ 121.523960125110577, 25.045932680723251 ] } }
,
{ "type": "Feature", "properties": { "CITYZONE": "內湖區", "NAME": "台亞", "S_NAME": "台亞堤頂交流道加油站", "SUPPLIER": "台塑", "ADDRESS": "舊宗路二段111號", "PHONE": "02-87918388", "DUTY_TIME": "24小時", "UN_98": "Y", "UN_95": "Y", "UN_92": "Y", "DIESEL": "Y", "ADDR_X": 307172.747, "ADDR_Y": 2773752.411, "ALC_GASOLI": null, "ATMONS": null, "X84": "121.5749784", "Y84": "25.0689291" }, "geometry": { "type": "Point", "coordinates": [ 121.574931098267228, 25.069114937421347 ] } }
,
{ "type": "Feature", "properties": { "CITYZONE": "內湖區", "NAME": "中油", "S_NAME": "內湖站", "SUPPLIER": "中油直營站", "ADDRESS": "民權東路六段50號", "PHONE": "02-27920678", "DUTY_TIME": "24小時", "UN_98": "Y", "UN_95": "Y", "UN_92": "Y", "DIESEL": "Y", "ADDR_X": 308083.626, "ADDR_Y": 2773698.848, "ALC_GASOLI": null, "ATMONS": null, "X84": "121.5985200", "Y84": "25.0691650" }, "geometry": { "type": "Point", "coordinates": [ 121.583957366981721, 25.068596138711818 ] } }
,
{ "type": "Feature", "properties": { "CITYZONE": "內湖區", "NAME": "中油", "S_NAME": "東湖站", "SUPPLIER": "中油直營站", "ADDRESS": "康寧路三段225號", "PHONE": "02-26311524", "DUTY_TIME": "7~22時", "UN_98": "Y", "UN_95": "Y", "UN_92": "Y", "DIESEL": "Y", "ADDR_X": 310779.763, "ADDR_Y": 2774125.659, "ALC_GASOLI": null, "ATMONS": null, "X84": "121.6118611", "Y84": "25.0675280" }, "geometry": { "type": "Point", "coordinates": [ 121.610700168877557, 25.072341771265471 ] } }
,
{ "type": "Feature", "properties": { "CITYZONE": "內湖區", "NAME": "中油", "S_NAME": "內湖麗山街站", "SUPPLIER": "中油直營站", "ADDRESS": "內湖路一段362號", "PHONE": "02-26577339", "DUTY_TIME": "24小時", "UN_98": "Y", "UN_95": "Y", "UN_92": "Y", "DIESEL": "Y", "ADDR_X": 306777.651, "ADDR_Y": 2775104.161, "ALC_GASOLI": null, "ATMONS": null, "X84": "121.5710360", "Y84": "25.0813170" }, "geometry": { "type": "Point", "coordinates": [ 121.571071534692081, 25.081333442211164 ] } }
,
{ "type": "Feature", "properties": { "CITYZONE": "內湖區", "NAME": "協記", "S_NAME": "協記站", "SUPPLIER": "中油加盟站", "ADDRESS": "新明路305號", "PHONE": "02-27915409", "DUTY_TIME": "24小時", "UN_98": "Y", "UN_95": "Y", "UN_92": "Y", "DIESEL": "Y", "ADDR_X": 308185.248, "ADDR_Y": 2772418.537, "ALC_GASOLI": null, "ATMONS": null, "X84": "121.5849720", "Y84": "25.0568660" }, "geometry": { "type": "Point", "coordinates": [ 121.584909746873564, 25.057033732815384 ] } }
,
{ "type": "Feature", "properties": { "CITYZONE": "內湖區", "NAME": "康寧", "S_NAME": "康寧站", "SUPPLIER": "中油加盟站", "ADDRESS": "康寧路三段30號", "PHONE": "02-26328788", "DUTY_TIME": "24小時", "UN_98": "Y", "UN_95": "Y", "UN_92": "Y", "DIESEL": "Y", "ADDR_X": 310546.686, "ADDR_Y": 2774087.383, "ALC_GASOLI": null, "ATMONS": null, "X84": "121.6083030", "Y84": "25.0720079" }, "geometry": { "type": "Point", "coordinates": [ 121.608388172188057, 25.072005710699148 ] } }
,
{ "type": "Feature", "properties": { "CITYZONE": "內湖區", "NAME": "佳阜", "S_NAME": "大湖站", "SUPPLIER": "台塑", "ADDRESS": "安康路160號", "PHONE": "02-27917055", "DUTY_TIME": "24小時", "UN_98": "Y", "UN_95": "Y", "UN_92": "Y", "DIESEL": "Y", "ADDR_X": 309795.598, "ADDR_Y": 2773098.087, "ALC_GASOLI": null, "ATMONS": null, "X84": "121.6007630", "Y84": "25.0629690" }, "geometry": { "type": "Point", "coordinates": [ 121.600899726287636, 25.063104865103831 ] } }
,
{ "type": "Feature", "properties": { "CITYZONE": "內湖區", "NAME": "紫陽", "S_NAME": "紫陽站", "SUPPLIER": "中油加盟站", "ADDRESS": "文德路206號", "PHONE": "02-26579000", "DUTY_TIME": "24小時", "UN_98": "Y", "UN_95": "Y", "UN_92": "Y", "DIESEL": "Y", "ADDR_X": 308024.825, "ADDR_Y": 2774785.615, "ALC_GASOLI": null, "ATMONS": null, "X84": "121.5834720", "Y84": "25.0783290" }, "geometry": { "type": "Point", "coordinates": [ 121.583421026409809, 25.078409575233078 ] } }
,
{ "type": "Feature", "properties": { "CITYZONE": "內湖區", "NAME": "統一精工", "S_NAME": "統一精工內湖一站", "SUPPLIER": "中油加盟站", "ADDRESS": "新明路92號", "PHONE": "02-27929031", "DUTY_TIME": "24小時", "UN_98": "Y", "UN_95": "Y", "UN_92": "Y", "DIESEL": "Y", "ADDR_X": 308645.299, "ADDR_Y": 2772717.676, "ALC_GASOLI": null, "ATMONS": null, "X84": "121.5895790", "Y84": "25.0598330" }, "geometry": { "type": "Point", "coordinates": [ 121.58948220374937, 25.05971628200135 ] } }
,
{ "type": "Feature", "properties": { "CITYZONE": "內湖區", "NAME": "麗馳", "S_NAME": "麗馳站", "SUPPLIER": "中油加盟站", "ADDRESS": "舊宗路二段133號", "PHONE": "02-27925356", "DUTY_TIME": "24小時", "UN_98": "Y", "UN_95": "Y", "UN_92": "Y", "DIESEL": "Y", "ADDR_X": 307175.735, "ADDR_Y": 2773833.834, "ALC_GASOLI": null, "ATMONS": null, "X84": "121.5749810", "Y84": "25.0697020" }, "geometry": { "type": "Point", "coordinates": [ 121.574964147083534, 25.069849897013345 ] } }
,
{ "type": "Feature", "properties": { "CITYZONE": "內湖區", "NAME": "全國", "S_NAME": "全國民權站", "SUPPLIER": "台塑", "ADDRESS": "民權東路六段20號", "PHONE": "02-87922326", "DUTY_TIME": "24小時", "UN_98": "Y", "UN_95": "Y", "UN_92": "Y", "DIESEL": "Y", "ADDR_X": 307516.621, "ADDR_Y": 2773465.504, "ALC_GASOLI": null, "ATMONS": null, "X84": "121.5783660", "Y84": "25.0663950" }, "geometry": { "type": "Point", "coordinates": [ 121.578327389494689, 25.066511546591773 ] } }
,
{ "type": "Feature", "properties": { "CITYZONE": "內湖區", "NAME": "全國", "S_NAME": "文德站", "SUPPLIER": "台塑", "ADDRESS": "民權東路六段10號", "PHONE": "02-27938806", "DUTY_TIME": "24小時", "UN_98": "Y", "UN_95": "Y", "UN_92": "Y", "DIESEL": "Y", "ADDR_X": 307246.124, "ADDR_Y": 2773378.02, "ALC_GASOLI": null, "ATMONS": null, "X84": "121.5756730", "Y84": "25.0656380" }, "geometry": { "type": "Point", "coordinates": [ 121.575642608078681, 25.065732174096929 ] } }
,
{ "type": "Feature", "properties": { "CITYZONE": "內湖區", "NAME": "西歐", "S_NAME": "自強站", "SUPPLIER": "台塑", "ADDRESS": "內湖路一段146號", "PHONE": "02-26279311", "DUTY_TIME": "24小時", "UN_98": "Y", "UN_95": "Y", "UN_92": "Y", "DIESEL": "Y", "ADDR_X": 306078.875, "ADDR_Y": 2775262.22, "ALC_GASOLI": null, "ATMONS": null, "X84": "121.5640960", "Y84": "25.0825969" }, "geometry": { "type": "Point", "coordinates": [ 121.564151158521511, 25.082786869466617 ] } }
,
{ "type": "Feature", "properties": { "CITYZONE": "內湖區", "NAME": "中油", "S_NAME": "安康加油加氣站", "SUPPLIER": "中油直營站", "ADDRESS": "安康路282號", "PHONE": "02-27909413", "DUTY_TIME": "7-22時", "UN_98": null, "UN_95": "Y", "UN_92": "Y", "DIESEL": "Y", "ADDR_X": 310296.785, "ADDR_Y": 2773219.896, "ALC_GASOLI": null, "ATMONS": null, "X84": "121.6058610", "Y84": "25.0641620" }, "geometry": { "type": "Point", "coordinates": [ 121.605872597932176, 25.064184345797901 ] } }
,
{ "type": "Feature", "properties": { "CITYZONE": "內湖區", "NAME": "台灣優力", "S_NAME": "進寶站", "SUPPLIER": "中油加盟站", "ADDRESS": "港墘路250號", "PHONE": "02-87515511", "DUTY_TIME": "24小時", "UN_98": "Y", "UN_95": "Y", "UN_92": "Y", "DIESEL": "Y", "ADDR_X": 306918.326, "ADDR_Y": 2774391.209, "ALC_GASOLI": null, "ATMONS": null, "X84": "121.5726530", "Y84": "25.0750049" }, "geometry": { "type": "Point", "coordinates": [ 121.572436103487846, 25.074891653126397 ] } }
,
{ "type": "Feature", "properties": { "CITYZONE": "內湖區", "NAME": "鯨世界", "S_NAME": "鯨世界堤頂加油站", "SUPPLIER": "台塑", "ADDRESS": "堤頂大道2段13號", "PHONE": "02-27993198", "DUTY_TIME": "24小時", "UN_98": "Y", "UN_95": "Y", "UN_92": "Y", "DIESEL": "Y", "ADDR_X": 306878.852, "ADDR_Y": 2774458.061, "ALC_GASOLI": null, "ATMONS": null, "X84": "121.5732270", "Y84": "25.0752110" }, "geometry": { "type": "Point", "coordinates": [ 121.572047625602522, 25.075496691069635 ] } }
,
{ "type": "Feature", "properties": { "CITYZONE": "文山區", "NAME": "政大", "S_NAME": "政大站", "SUPPLIER": "台塑", "ADDRESS": "指南路一段53號", "PHONE": "02-27232997", "DUTY_TIME": "24小時", "UN_98": "Y", "UN_95": "Y", "UN_92": "Y", "DIESEL": null, "ADDR_X": 306793.719, "ADDR_Y": 2764756.134, "ALC_GASOLI": null, "ATMONS": null, "X84": "121.5707590", "Y84": "24.9878390" }, "geometry": { "type": "Point", "coordinates": [ 121.570798328394929, 24.987911934852967 ] } }
,
{ "type": "Feature", "properties": { "CITYZONE": "文山區", "NAME": "中油", "S_NAME": "木柵站", "SUPPLIER": "中油直營站", "ADDRESS": "木柵路三段2號", "PHONE": "02-29398177", "DUTY_TIME": "24小時", "UN_98": "Y", "UN_95": "Y", "UN_92": "Y", "DIESEL": null, "ADDR_X": 306124.8, "ADDR_Y": 2764827.74, "ALC_GASOLI": null, "ATMONS": null, "X84": "121.5641471", "Y84": "24.9885350" }, "geometry": { "type": "Point", "coordinates": [ 121.564175352725613, 24.988583660133724 ] } }
,
{ "type": "Feature", "properties": { "CITYZONE": "文山區", "NAME": "台灣優力", "S_NAME": "辛亥站", "SUPPLIER": "中油加盟站", "ADDRESS": "辛亥路四段100號", "PHONE": "02-86639825", "DUTY_TIME": "24小時", "UN_98": "Y", "UN_95": "Y", "UN_92": "Y", "DIESEL": null, "ADDR_X": 305474.175, "ADDR_Y": 2766772.682, "ALC_GASOLI": null, "ATMONS": null, "X84": "121.5582549", "Y84": "25.0064210" }, "geometry": { "type": "Point", "coordinates": [ 121.557809861438741, 25.006166814469214 ] } }
,
{ "type": "Feature", "properties": { "CITYZONE": "文山區", "NAME": "全國", "S_NAME": "全國景美站", "SUPPLIER": "台塑", "ADDRESS": "羅斯福路六段140號", "PHONE": "02-29356519", "DUTY_TIME": "24小時", "UN_98": "Y", "UN_95": "Y", "UN_92": "Y", "DIESEL": "Y", "ADDR_X": 303749.31, "ADDR_Y": 2765678.646, "ALC_GASOLI": null, "ATMONS": null, "X84": "121.5408490", "Y84": "24.9961820" }, "geometry": { "type": "Point", "coordinates": [ 121.540678530784859, 24.996352987653207 ] } }
,
{ "type": "Feature", "properties": { "CITYZONE": "文山區", "NAME": "金台", "S_NAME": "福華站", "SUPPLIER": "台塑", "ADDRESS": "興隆路二段244巷1號", "PHONE": "02-29347533", "DUTY_TIME": "24小時", "UN_98": "Y", "UN_95": "Y", "UN_92": "Y", "DIESEL": "Y", "ADDR_X": 304969.644, "ADDR_Y": 2766012.003, "ALC_GASOLI": null, "ATMONS": null, "X84": "121.5539710", "Y84": "25.0009010" }, "geometry": { "type": "Point", "coordinates": [ 121.552780786209979, 24.999318096990834 ] } }
,
{ "type": "Feature", "properties": { "CITYZONE": "文山區", "NAME": "世新", "S_NAME": "世新站", "SUPPLIER": "中油加盟站", "ADDRESS": "景興路293號", "PHONE": "02-29354466", "DUTY_TIME": "24小時", "UN_98": "Y", "UN_95": "Y", "UN_92": "Y", "DIESEL": null, "ADDR_X": 303932.607, "ADDR_Y": 2764902.343, "ALC_GASOLI": null, "ATMONS": null, "X84": "121.5423850", "Y84": "24.9891200" }, "geometry": { "type": "Point", "coordinates": [ 121.542463531998081, 24.989337922591741 ] } }
,
{ "type": "Feature", "properties": { "CITYZONE": "北投區", "NAME": "台亞", "S_NAME": "台亞承德站", "SUPPLIER": "台塑直營站", "ADDRESS": "承德路七段303號", "PHONE": "02-28203335", "DUTY_TIME": "24小時", "UN_98": "Y", "UN_95": "Y", "UN_92": "Y", "DIESEL": "Y", "ADDR_X": 299990.104, "ADDR_Y": 2779008.594, "ALC_GASOLI": null, "ATMONS": null, "X84": "121.5040310", "Y84": "25.1167220" }, "geometry": { "type": "Point", "coordinates": [ 121.503931078637251, 25.116826008488246 ] } }
,
{ "type": "Feature", "properties": { "CITYZONE": "北投區", "NAME": "中油", "S_NAME": "北投站", "SUPPLIER": "中油直營站", "ADDRESS": "承德路七段384號", "PHONE": "02-28201203", "DUTY_TIME": "24小時", "UN_98": "Y", "UN_95": "Y", "UN_92": "Y", "DIESEL": null, "ADDR_X": 299819.241, "ADDR_Y": 2779289.415, "ALC_GASOLI": null, "ATMONS": null, "X84": "121.5021650", "Y84": "25.1193110" }, "geometry": { "type": "Point", "coordinates": [ 121.502247181611992, 25.119366980596777 ] } }
,
{ "type": "Feature", "properties": { "CITYZONE": "北投區", "NAME": "中油", "S_NAME": "中央北路站", "SUPPLIER": "中油直營站", "ADDRESS": "中央北路四段584號", "PHONE": "02-28913744", "DUTY_TIME": "24小時", "UN_98": "Y", "UN_95": "Y", "UN_92": "Y", "DIESEL": "Y", "ADDR_X": 296171.6, "ADDR_Y": 2780122.29, "ALC_GASOLI": null, "ATMONS": null, "X84": "121.4663000", "Y84": "25.1270790" }, "geometry": { "type": "Point", "coordinates": [ 121.466105220498079, 25.127004262150461 ] } }
,
{ "type": "Feature", "properties": { "CITYZONE": "北投區", "NAME": "中油", "S_NAME": "百齡四路站", "SUPPLIER": "中油直營站", "ADDRESS": "承德路六段427號", "PHONE": "02-28201427", "DUTY_TIME": "24小時", "UN_98": "Y", "UN_95": "Y", "UN_92": "Y", "DIESEL": "Y", "ADDR_X": 300717.47, "ADDR_Y": 2778039.678, "ALC_GASOLI": "Y", "ATMONS": "Y", "X84": "121.5113640", "Y84": "25.1080049" }, "geometry": { "type": "Point", "coordinates": [ 121.511107180659877, 25.108054049208093 ] } }
,
{ "type": "Feature", "properties": { "CITYZONE": "北投區", "NAME": "車容坊", "S_NAME": "大業站", "SUPPLIER": "中油加盟站", "ADDRESS": "大度路2號", "PHONE": "02-28927890", "DUTY_TIME": "24小時", "UN_98": "Y", "UN_95": "Y", "UN_92": "Y", "DIESEL": "Y", "ADDR_X": 299440.333, "ADDR_Y": 2779537.632, "ALC_GASOLI": null, "ATMONS": null, "X84": "121.4988010", "Y84": "25.1214130" }, "geometry": { "type": "Point", "coordinates": [ 121.498498982605554, 25.121620540883214 ] } }
,
{ "type": "Feature", "properties": { "CITYZONE": "北投區", "NAME": "富叡", "S_NAME": "關渡大業站", "SUPPLIER": "中油加盟站", "ADDRESS": "大業路157號", "PHONE": "02-28983720", "DUTY_TIME": "24小時", "UN_98": "Y", "UN_95": "Y", "UN_92": "Y", "DIESEL": "Y", "ADDR_X": 299455.41, "ADDR_Y": 2779862.552, "ALC_GASOLI": null, "ATMONS": null, "X84": "121.4985720", "Y84": "25.1247010" }, "geometry": { "type": "Point", "coordinates": [ 121.498660397161018, 25.124553381350701 ] } }
,
{ "type": "Feature", "properties": { "CITYZONE": "北投區", "NAME": "晶叡", "S_NAME": "石牌站", "SUPPLIER": "中油加盟站", "ADDRESS": "承德路七段139號", "PHONE": "02-28206995", "DUTY_TIME": "24小時", "UN_98": "Y", "UN_95": "Y", "UN_92": "Y", "DIESEL": "Y", "ADDR_X": 300474.37, "ADDR_Y": 2778542.26, "ALC_GASOLI": null, "ATMONS": null, "X84": "121.5086570", "Y84": "25.1125200" }, "geometry": { "type": "Point", "coordinates": [ 121.508715578859992, 25.112599595523868 ] } }
,
{ "type": "Feature", "properties": { "CITYZONE": "中山區", "NAME": "濱江", "S_NAME": "濱江站", "SUPPLIER": "中油加盟站", "ADDRESS": "濱江街195號", "PHONE": "02-25057789", "DUTY_TIME": "24小時", "UN_98": "Y", "UN_95": "Y", "UN_92": "Y", "DIESEL": "Y", "ADDR_X": 303597.276, "ADDR_Y": 2774146.437, "ALC_GASOLI": null, "ATMONS": null, "X84": "121.5394200", "Y84": "25.0726720" }, "geometry": { "type": "Point", "coordinates": [ 121.539506732401406, 25.072805187926697 ] } }
,
{ "type": "Feature", "properties": { "CITYZONE": "松山區", "NAME": "台亞", "S_NAME": "松山機場站", "SUPPLIER": "中油直營站", "ADDRESS": "敦化北路342之1號", "PHONE": "02-27138528", "DUTY_TIME": "7~23時", "UN_98": "Y", "UN_95": "Y", "UN_92": "Y", "DIESEL": null, "ADDR_X": 304716.166, "ADDR_Y": 2773034.872, "ALC_GASOLI": null, "ATMONS": null, "X84": "121.5506460", "Y84": "25.0627950" }, "geometry": { "type": "Point", "coordinates": [ 121.550552619052866, 25.062729381024599 ] } }
,
{ "type": "Feature", "properties": { "CITYZONE": "松山區", "NAME": "中油", "S_NAME": "復興北路站", "SUPPLIER": "中油直營站", "ADDRESS": "復興北路31號", "PHONE": "02-27112342", "DUTY_TIME": "24小時", "UN_98": "Y", "UN_95": "Y", "UN_92": "Y", "DIESEL": null, "ADDR_X": 304031.094, "ADDR_Y": 2771382.716, "ALC_GASOLI": null, "ATMONS": null, "X84": "121.5444160", "Y84": "25.0495150" }, "geometry": { "type": "Point", "coordinates": [ 121.543696738430071, 25.047838885072235 ] } }
,
{ "type": "Feature", "properties": { "CITYZONE": "松山區", "NAME": "中油", "S_NAME": "民生東路站", "SUPPLIER": "中油直營站", "ADDRESS": "三民路126號", "PHONE": "02-27671664", "DUTY_TIME": "24小時", "UN_98": "Y", "UN_95": "Y", "UN_92": "Y", "DIESEL": null, "ADDR_X": 306061.517, "ADDR_Y": 2772687.963, "ALC_GASOLI": null, "ATMONS": null, "X84": "121.5637250", "Y84": "25.0593789" }, "geometry": { "type": "Point", "coordinates": [ 121.563872657850652, 25.059547488587153 ] } }
,
{ "type": "Feature", "properties": { "CITYZONE": "松山區", "NAME": "中油", "S_NAME": "光復北路站", "SUPPLIER": "中油直營站", "ADDRESS": "光復北路9號", "PHONE": "02-27674900", "DUTY_TIME": "24小時", "UN_98": "Y", "UN_95": "Y", "UN_92": "Y", "DIESEL": null, "ADDR_X": 305474.051, "ADDR_Y": 2771530.577, "ALC_GASOLI": null, "ATMONS": null, "X84": "121.5580037", "Y84": "25.0491461" }, "geometry": { "type": "Point", "coordinates": [ 121.558002858610379, 25.049120729864867 ] } }
,
{ "type": "Feature", "properties": { "CITYZONE": "松山區", "NAME": "全國", "S_NAME": "全國撫遠街站", "SUPPLIER": "台塑", "ADDRESS": "塔悠路99號", "PHONE": "02-27670389", "DUTY_TIME": "24小時", "UN_98": "Y", "UN_95": "Y", "UN_92": "Y", "DIESEL": "Y", "ADDR_X": 306697.954, "ADDR_Y": 2772068.887, "ALC_GASOLI": null, "ATMONS": null, "X84": "121.5702740", "Y84": "25.0538280" }, "geometry": { "type": "Point", "coordinates": [ 121.57015463450945, 25.053934464814283 ] } }
,
{ "type": "Feature", "properties": { "CITYZONE": "信義區", "NAME": "中油", "S_NAME": "松山路站", "SUPPLIER": "中油直營站", "ADDRESS": "松山路480號", "PHONE": "02-27297328", "DUTY_TIME": "24小時", "UN_98": "Y", "UN_95": "Y", "UN_92": "Y", "DIESEL": null, "ADDR_X": 307449.533, "ADDR_Y": 2770515.566, "ALC_GASOLI": null, "ATMONS": null, "X84": "121.5776240", "Y84": "25.0396690" }, "geometry": { "type": "Point", "coordinates": [ 121.577537614880583, 25.039882503952217 ] } }
,
{ "type": "Feature", "properties": { "CITYZONE": "大安區", "NAME": "中油", "S_NAME": "信義路站", "SUPPLIER": "中油直營站", "ADDRESS": "信義路四段374號", "PHONE": "02-27081235", "DUTY_TIME": "24小時", "UN_98": "Y", "UN_95": "Y", "UN_92": "Y", "DIESEL": null, "ADDR_X": 305633.45, "ADDR_Y": 2769794.446, "ALC_GASOLI": "Y", "ATMONS": null, "X84": "121.5554730", "Y84": "25.0329230" }, "geometry": { "type": "Point", "coordinates": [ 121.55951143409311, 25.033441162752599 ] } }
,
{ "type": "Feature", "properties": { "CITYZONE": "信義區", "NAME": "中油", "S_NAME": "忠孝東路站", "SUPPLIER": "中油直營站", "ADDRESS": "忠孝東路五段129號", "PHONE": "02-27622418", "DUTY_TIME": "24小時", "UN_98": "Y", "UN_95": "Y", "UN_92": "Y", "DIESEL": null, "ADDR_X": 306379.929, "ADDR_Y": 2770688.182, "ALC_GASOLI": null, "ATMONS": null, "X84": "121.5668190", "Y84": "25.0413090" }, "geometry": { "type": "Point", "coordinates": [ 121.566945446072097, 25.041481685557791 ] } }
,
{ "type": "Feature", "properties": { "CITYZONE": "南港區", "NAME": "中油", "S_NAME": "南港站", "SUPPLIER": "中油直營站", "ADDRESS": "南港路二段50號", "PHONE": "02-27822408", "DUTY_TIME": "24小時", "UN_98": "Y", "UN_95": "Y", "UN_92": "Y", "DIESEL": "Y", "ADDR_X": 310166.11, "ADDR_Y": 2772114.456, "ALC_GASOLI": "Y", "ATMONS": null, "X84": "121.6045040", "Y84": "25.0541529" }, "geometry": { "type": "Point", "coordinates": [ 121.604528446097959, 25.054209922986171 ] } }
,
{ "type": "Feature", "properties": { "CITYZONE": "南港區", "NAME": "全國", "S_NAME": "全國南港站", "SUPPLIER": "台塑", "ADDRESS": "南港路三段49號", "PHONE": "02-27828306", "DUTY_TIME": "24小時", "UN_98": "Y", "UN_95": "Y", "UN_92": "Y", "DIESEL": "Y", "ADDR_X": 308702.925, "ADDR_Y": 2772014.673, "ALC_GASOLI": null, "ATMONS": null, "X84": "121.5898978", "Y84": "25.0532812" }, "geometry": { "type": "Point", "coordinates": [ 121.590022953111145, 25.053367416875691 ] } }
,
{ "type": "Feature", "properties": { "CITYZONE": "南港區", "NAME": "聯成", "S_NAME": "聯成站", "SUPPLIER": "中油加盟站", "ADDRESS": "忠孝東路六段226號", "PHONE": "02-27883748", "DUTY_TIME": "24小時", "UN_98": "Y", "UN_95": "Y", "UN_92": "Y", "DIESEL": null, "ADDR_X": 308453.904, "ADDR_Y": 2771499.376, "ALC_GASOLI": null, "ATMONS": null, "X84": "121.5874930", "Y84": "25.0486560" }, "geometry": { "type": "Point", "coordinates": [ 121.587532819162348, 25.048725177858643 ] } }
,
{ "type": "Feature", "properties": { "CITYZONE": "內湖區", "NAME": "中油", "S_NAME": "西湖站", "SUPPLIER": "中油直營站", "ADDRESS": "內湖路一段59號", "PHONE": "02-27992147", "DUTY_TIME": "7~23時", "UN_98": "Y", "UN_95": "Y", "UN_92": "Y", "DIESEL": null, "ADDR_X": 305653.784, "ADDR_Y": 2775520.508, "ALC_GASOLI": null, "ATMONS": null, "X84": "121.5600181", "Y84": "25.0850733" }, "geometry": { "type": "Point", "coordinates": [ 121.559947817436509, 25.085134615834491 ] } }
,
{ "type": "Feature", "properties": { "CITYZONE": "萬華區", "NAME": "中油", "S_NAME": "環河南路站", "SUPPLIER": "中油直營站", "ADDRESS": "環河南路二段274之2及117之1號", "PHONE": "02-23040528", "DUTY_TIME": "7~23時,機車7~22時", "UN_98": "Y", "UN_95": "Y", "UN_92": "Y", "DIESEL": "Y", "ADDR_X": 298759.322, "ADDR_Y": 2769674.154, "ALC_GASOLI": null, "ATMONS": null, "X84": "121.5598345", "Y84": "25.0910750" }, "geometry": { "type": "Point", "coordinates": [ 121.49139030945112, 25.032596018420378 ] } }
,
{ "type": "Feature", "properties": { "CITYZONE": "萬華區", "NAME": "中油", "S_NAME": "桂林路站", "SUPPLIER": "中油直營站", "ADDRESS": "桂林路53號", "PHONE": "02-23819053", "DUTY_TIME": "7~23時", "UN_98": "Y", "UN_95": "Y", "UN_92": "Y", "DIESEL": null, "ADDR_X": 299729.76, "ADDR_Y": 2770343.701, "ALC_GASOLI": "Y", "ATMONS": null, "X84": "121.5033180", "Y84": "25.0382830" }, "geometry": { "type": "Point", "coordinates": [ 121.501031051726258, 25.038608578919899 ] } }
,
{ "type": "Feature", "properties": { "CITYZONE": "萬華區", "NAME": "山隆", "S_NAME": "華中站", "SUPPLIER": "中油加盟站", "ADDRESS": "萬大路388號", "PHONE": "02-23071319", "DUTY_TIME": "24小時", "UN_98": "Y", "UN_95": "Y", "UN_92": "Y", "DIESEL": "Y", "ADDR_X": 299498.907, "ADDR_Y": 2768499.447, "ALC_GASOLI": null, "ATMONS": null, "X84": "121.4987141", "Y84": "25.0218884" }, "geometry": { "type": "Point", "coordinates": [ 121.498676084784222, 25.021966338414252 ] } }
,
{ "type": "Feature", "properties": { "CITYZONE": "萬華區", "NAME": "山隆", "S_NAME": "萬大站", "SUPPLIER": "中油加盟站", "ADDRESS": "萬大路207號", "PHONE": "02-23038866", "DUTY_TIME": "24小時", "UN_98": "Y", "UN_95": "Y", "UN_92": "Y", "DIESEL": "Y", "ADDR_X": 299689.958, "ADDR_Y": 2769083.632, "ALC_GASOLI": null, "ATMONS": null, "X84": "121.5006410", "Y84": "25.0272930" }, "geometry": { "type": "Point", "coordinates": [ 121.500590462688791, 25.027234004690694 ] } }
,
{ "type": "Feature", "properties": { "CITYZONE": "內湖區", "NAME": "內湖", "S_NAME": "安康加氣站", "SUPPLIER": null, "ADDRESS": "安康路282號", "PHONE": "02-27909413", "DUTY_TIME": "7-22時", "UN_98": null, "UN_95": null, "UN_92": null, "DIESEL": null, "ADDR_X": 310375.391, "ADDR_Y": 2773219.14, "ALC_GASOLI": null, "ATMONS": "Y", "X84": "121.6064970", "Y84": "25.0641829" }, "geometry": { "type": "Point", "coordinates": [ 121.606651665985581, 25.064174339439223 ] } }
,
{ "type": "Feature", "properties": { "CITYZONE": "松山區", "NAME": "陸海", "S_NAME": "陸海加氣站", "SUPPLIER": null, "ADDRESS": "濱江街375號", "PHONE": "02-25093745", "DUTY_TIME": "24小時", "UN_98": null, "UN_95": null, "UN_92": null, "DIESEL": null, "ADDR_X": 304812.829, "ADDR_Y": 2774148.422, "ALC_GASOLI": null, "ATMONS": "Y", "X84": "121.5527300", "Y84": "25.0728141" }, "geometry": { "type": "Point", "coordinates": [ 121.551555710198613, 25.072778826192799 ] } }
,
{ "type": "Feature", "properties": { "CITYZONE": "中山區", "NAME": "六通", "S_NAME": "六通加氣站", "SUPPLIER": null, "ADDRESS": "濱江街183號", "PHONE": null, "DUTY_TIME": "24小時", "UN_98": null, "UN_95": null, "UN_92": null, "DIESEL": null, "ADDR_X": 303556.34, "ADDR_Y": 2774145.856, "ALC_GASOLI": null, "ATMONS": "Y", "X84": "121.5389473", "Y84": "25.0727322" }, "geometry": { "type": "Point", "coordinates": [ 121.539100939987264, 25.072801416977846 ] } }
,
{ "type": "Feature", "properties": { "CITYZONE": "文山區", "NAME": "中油", "S_NAME": "萬隆站", "SUPPLIER": "中油直營站", "ADDRESS": "興隆路一段13號", "PHONE": "02-29312829", "DUTY_TIME": "24小時", "UN_98": "Y", "UN_95": "Y", "UN_92": "Y", "DIESEL": "Y", "ADDR_X": 303606.361, "ADDR_Y": 2766590.795, "ALC_GASOLI": null, "ATMONS": null, "X84": "121.5394780", "Y84": "25.0044460" }, "geometry": { "type": "Point", "coordinates": [ 121.539298405141494, 25.004592994354997 ] } }
,
{ "type": "Feature", "properties": { "CITYZONE": "內湖區", "NAME": "台灣優力", "S_NAME": "台灣優力內湖加油加氣站", "SUPPLIER": "中油加盟站", "ADDRESS": "安康路296號", "PHONE": "02-27961845", "DUTY_TIME": "24小時", "UN_98": "Y", "UN_95": "Y", "UN_92": "Y", "DIESEL": "Y", "ADDR_X": 310428.691, "ADDR_Y": 2773256.105, "ALC_GASOLI": null, "ATMONS": "Y", "X84": "121.6072430", "Y84": "25.0643750" }, "geometry": { "type": "Point", "coordinates": [ 121.607181592664645, 25.06450589256637 ] } }
,
{ "type": "Feature", "properties": { "CITYZONE": "內湖區", "NAME": "東易", "S_NAME": "東易站", "SUPPLIER": "中油加盟站", "ADDRESS": "堤頂大道2段191號", "PHONE": "02-27232997", "DUTY_TIME": "7-22時", "UN_98": "Y", "UN_95": "Y", "UN_92": "Y", "DIESEL": "Y", "ADDR_X": 306520.819, "ADDR_Y": 2774708.98, "ALC_GASOLI": null, "ATMONS": null, "X84": "121.5685589", "Y84": "25.0778035" }, "geometry": { "type": "Point", "coordinates": [ 121.568509100852836, 25.077775585417637 ] } }

]
}
